{"Spot_Name":"공천포","Spot_Addr":"제주특별자치도 서귀포시 남원읍 신례리","Spot_Score":4,"Spot_Views":3850,"Spot_Time":"2022-08-11","Spot_Field":"남원읍","Position":{"lat":33.26769,"lon":126.645996}}
{"Spot_Name":"제주민속촌","Spot_Addr":"제주특별자치도 서귀포시 표선면 민속해안로 631-34","Spot_Score":5,"Spot_Views":47560,"Spot_Time":"2022-08-11","Spot_Field":"표선면","Position":{"lat":33.32226,"lon":126.84201}}
{"Spot_Name":"제주빅볼랜드","Spot_Addr":"제주특별자치도 제주시 애월읍 산록서로 15","Spot_Score":5,"Spot_Views":36634,"Spot_Time":"2022-08-11","Spot_Field":"애월읍","Position":{"lat":33.3659432,"lon":126.35644}}
{"Spot_Name":"마오름(맞보기)(안덕)","Spot_Addr":"제주특별자치도 서귀포시 안덕면 산록남로","Spot_Score":0,"Spot_Views":900,"Spot_Time":"2022-08-11","Spot_Field":"안덕면","Position":{"lat":33.325733,"lon":126.40013}}
{"Spot_Name":"과오름(큰오름, 샛오름, 말젯오름)","Spot_Addr":"제주특별자치도 제주시 애월읍 곽지리 산 1","Spot_Score":0,"Spot_Views":2279,"Spot_Time":"2022-08-11","Spot_Field":"애월읍","Position":{"lat":33.44657762,"lon":126.3238801}}
{"Spot_Name":"신양해안도로","Spot_Addr":"제주특별자치도 서귀포시 성산읍 신고로","Spot_Score":0,"Spot_Views":3812,"Spot_Time":"2022-08-11","Spot_Field":"성산읍","Position":{"lat":33.431046,"lon":126.91553}}
{"Spot_Name":"너븐숭이 4.3기념관","Spot_Addr":"제주특별자치도 제주시 조천읍 북촌3길 3","Spot_Score":5,"Spot_Views":32371,"Spot_Time":"2022-08-11","Spot_Field":"조천읍","Position":{"lat":33.545986,"lon":126.68877}}
{"Spot_Name":"백약이오름","Spot_Addr":"제주특별자치도 서귀포시 표선면 성읍리 산 1","Spot_Score":5,"Spot_Views":62704,"Spot_Time":"2022-08-11","Spot_Field":"표선면","Position":{"lat":33.437283,"lon":126.79018}}
{"Spot_Name":"디스커버제주","Spot_Addr":"제주특별자치도 서귀포시 대포로 26","Spot_Score":0,"Spot_Views":9651,"Spot_Time":"2022-08-11","Spot_Field":"대포로","Position":{"lat":33.2435151,"lon":126.4352216}}
{"Spot_Name":"광이오름 (괭이오름, 肝列岳)","Spot_Addr":"제주특별자치도 제주시 연동 산 62","Spot_Score":0,"Spot_Views":2661,"Spot_Time":"2022-08-11","Spot_Field":"연동","Position":{"lat":33.46847099,"lon":126.4950638}}
{"Spot_Name":"오름터 민속마을","Spot_Addr":"제주특별자치도 서귀포시 표선면 성읍정의현로 99","Spot_Score":0,"Spot_Views":4404,"Spot_Time":"2022-08-11","Spot_Field":"표선면","Position":{"lat":33.391445,"lon":126.80072}}
{"Spot_Name":"제주승마공원","Spot_Addr":"제주특별자치도 제주시 애월읍 녹고메길 152-1","Spot_Score":5,"Spot_Views":18962,"Spot_Time":"2022-08-11","Spot_Field":"애월읍","Position":{"lat":33.405148,"lon":126.40689}}
{"Spot_Name":"제주실탄사격장","Spot_Addr":"제주특별자치도 서귀포시 소보리당로 164번길 62(상예동)","Spot_Score":5,"Spot_Views":75288,"Spot_Time":"2022-08-11","Spot_Field":"소보리당로","Position":{"lat":33.2639753,"lon":126.3852041}}
{"Spot_Name":"서귀포 축구공원","Spot_Addr":"제주특별자치도 서귀포시 효돈순환로 311-29","Spot_Score":0,"Spot_Views":1372,"Spot_Time":"2022-08-11","Spot_Field":"효돈순환로","Position":{"lat":33.2588393,"lon":126.6105252}}
{"Spot_Name":"제주카약","Spot_Addr":"제주특별자치도 제주시 조천읍 평사길 19","Spot_Score":0,"Spot_Views":8674,"Spot_Time":"2022-08-11","Spot_Field":"조천읍","Position":{"lat":33.5437998,"lon":126.6739948}}
{"Spot_Name":"클럽나인브릿지","Spot_Addr":"제주특별자치도 서귀포시 안덕면 광평로 34-156","Spot_Score":5,"Spot_Views":1728,"Spot_Time":"2022-08-11","Spot_Field":"안덕면","Position":{"lat":33.3420536,"lon":126.4046382}}
{"Spot_Name":"서귀포시립기당미술관","Spot_Addr":"제주특별자치도 서귀포시 남성중로153번길 15","Spot_Score":0,"Spot_Views":7426,"Spot_Time":"2022-08-11","Spot_Field":"서홍동","Position":{"lat":33.244656,"lon":126.551796}}
.
.
.
.
.
관광지 데이터 입니다.
데이터 분류를 위해 넣은 필드가 존재합니다.
Kibana에서 지도 상 위치를 표현하기 위해 Position 필드에 경도와 위도 값을 넣었습니다.
