{"Spot_Name":"공천포","Spot_Addr":"제주특별자치도 서귀포시 남원읍 신례리","Spot_Score":4,"Spot_Views":3850,"Spot_Time":"2022-08-11","Spot_Field":"남원읍","Position":{"lat":33.26769,"lon":126.645996}}
{"Spot_Name":"제주민속촌","Spot_Addr":"제주특별자치도 서귀포시 표선면 민속해안로 631-34","Spot_Score":5,"Spot_Views":47560,"Spot_Time":"2022-08-11","Spot_Field":"표선면","Position":{"lat":33.32226,"lon":126.84201}}
{"Spot_Name":"제주빅볼랜드","Spot_Addr":"제주특별자치도 제주시 애월읍 산록서로 15","Spot_Score":5,"Spot_Views":36634,"Spot_Time":"2022-08-11","Spot_Field":"애월읍","Position":{"lat":33.3659432,"lon":126.35644}}
{"Spot_Name":"마오름(맞보기)(안덕)","Spot_Addr":"제주특별자치도 서귀포시 안덕면 산록남로","Spot_Score":0,"Spot_Views":900,"Spot_Time":"2022-08-11","Spot_Field":"안덕면","Position":{"lat":33.325733,"lon":126.40013}}
{"Spot_Name":"과오름(큰오름, 샛오름, 말젯오름)","Spot_Addr":"제주특별자치도 제주시 애월읍 곽지리 산 1","Spot_Score":0,"Spot_Views":2279,"Spot_Time":"2022-08-11","Spot_Field":"애월읍","Position":{"lat":33.44657762,"lon":126.3238801}}
{"Spot_Name":"신양해안도로","Spot_Addr":"제주특별자치도 서귀포시 성산읍 신고로","Spot_Score":0,"Spot_Views":3812,"Spot_Time":"2022-08-11","Spot_Field":"성산읍","Position":{"lat":33.431046,"lon":126.91553}}
{"Spot_Name":"너븐숭이 4.3기념관","Spot_Addr":"제주특별자치도 제주시 조천읍 북촌3길 3","Spot_Score":5,"Spot_Views":32371,"Spot_Time":"2022-08-11","Spot_Field":"조천읍","Position":{"lat":33.545986,"lon":126.68877}}
{"Spot_Name":"백약이오름","Spot_Addr":"제주특별자치도 서귀포시 표선면 성읍리 산 1","Spot_Score":5,"Spot_Views":62704,"Spot_Time":"2022-08-11","Spot_Field":"표선면","Position":{"lat":33.437283,"lon":126.79018}}
{"Spot_Name":"디스커버제주","Spot_Addr":"제주특별자치도 서귀포시 대포로 26","Spot_Score":0,"Spot_Views":9651,"Spot_Time":"2022-08-11","Spot_Field":"대포로","Position":{"lat":33.2435151,"lon":126.4352216}}
{"Spot_Name":"광이오름 (괭이오름, 肝列岳)","Spot_Addr":"제주특별자치도 제주시 연동 산 62","Spot_Score":0,"Spot_Views":2661,"Spot_Time":"2022-08-11","Spot_Field":"연동","Position":{"lat":33.46847099,"lon":126.4950638}}
{"Spot_Name":"오름터 민속마을","Spot_Addr":"제주특별자치도 서귀포시 표선면 성읍정의현로 99","Spot_Score":0,"Spot_Views":4404,"Spot_Time":"2022-08-11","Spot_Field":"표선면","Position":{"lat":33.391445,"lon":126.80072}}
{"Spot_Name":"제주승마공원","Spot_Addr":"제주특별자치도 제주시 애월읍 녹고메길 152-1","Spot_Score":5,"Spot_Views":18962,"Spot_Time":"2022-08-11","Spot_Field":"애월읍","Position":{"lat":33.405148,"lon":126.40689}}
{"Spot_Name":"제주실탄사격장","Spot_Addr":"제주특별자치도 서귀포시 소보리당로 164번길 62(상예동)","Spot_Score":5,"Spot_Views":75288,"Spot_Time":"2022-08-11","Spot_Field":"소보리당로","Position":{"lat":33.2639753,"lon":126.3852041}}
{"Spot_Name":"서귀포 축구공원","Spot_Addr":"제주특별자치도 서귀포시 효돈순환로 311-29","Spot_Score":0,"Spot_Views":1372,"Spot_Time":"2022-08-11","Spot_Field":"효돈순환로","Position":{"lat":33.2588393,"lon":126.6105252}}
{"Spot_Name":"제주카약","Spot_Addr":"제주특별자치도 제주시 조천읍 평사길 19","Spot_Score":0,"Spot_Views":8674,"Spot_Time":"2022-08-11","Spot_Field":"조천읍","Position":{"lat":33.5437998,"lon":126.6739948}}
{"Spot_Name":"클럽나인브릿지","Spot_Addr":"제주특별자치도 서귀포시 안덕면 광평로 34-156","Spot_Score":5,"Spot_Views":1728,"Spot_Time":"2022-08-11","Spot_Field":"안덕면","Position":{"lat":33.3420536,"lon":126.4046382}}
{"Spot_Name":"서귀포시립기당미술관","Spot_Addr":"제주특별자치도 서귀포시 남성중로153번길 15","Spot_Score":0,"Spot_Views":7426,"Spot_Time":"2022-08-11","Spot_Field":"서홍동","Position":{"lat":33.244656,"lon":126.551796}}
{"Spot_Name":"서건도","Spot_Addr":"제주특별자치도 서귀포시 강정동 산 1","Spot_Score":5,"Spot_Views":8011,"Spot_Time":"2022-08-11","Spot_Field":"강정동","Position":{"lat":33.23007,"lon":126.49852}}
{"Spot_Name":"새신오름(신서악)","Spot_Addr":"제주특별자치도 제주시 한경면 청수리 2661-4","Spot_Score":0,"Spot_Views":1343,"Spot_Time":"2022-08-11","Spot_Field":"한경면","Position":{"lat":33.298912,"lon":126.23928}}
{"Spot_Name":"법화사지","Spot_Addr":"제주특별자치도 서귀포시 하원북로35번길 15-28","Spot_Score":5,"Spot_Views":3573,"Spot_Time":"2022-08-11","Spot_Field":"하원동","Position":{"lat":33.2653454,"lon":126.4576828}}
{"Spot_Name":"보롬왓","Spot_Addr":"제주특별자치도 서귀포시 표선면 번영로 2350-104","Spot_Score":5,"Spot_Views":67590,"Spot_Time":"2022-08-11","Spot_Field":"표선면","Position":{"lat":33.41367,"lon":126.75351}}
{"Spot_Name":"제주프린지페스티벌","Spot_Score":0,"Spot_Views":914,"Spot_Time":"2022-08-11","Position":{"lat":33.512447,"lon":126.52219}}
{"Spot_Name":"귀빈사","Spot_Addr":"제주특별자치도 제주시 구좌읍 비자림로 1456","Spot_Score":5,"Spot_Views":7201,"Spot_Time":"2022-08-11","Spot_Field":"구좌읍","Position":{"lat":33.4429016,"lon":126.7613249}}
{"Spot_Name":"스쿠버스쿨","Spot_Addr":"제주특별자치도 제주시 서해안로 301","Spot_Score":0,"Spot_Views":7265,"Spot_Time":"2022-08-11","Spot_Field":"서해안로","Position":{"lat":33.5089684,"lon":126.4776764}}
{"Spot_Name":"쇠소깍제트","Spot_Addr":"제주특별자치도 서귀포시 쇠소깍로 151-8 (하효동)","Spot_Score":3,"Spot_Views":11215,"Spot_Time":"2022-08-11","Spot_Field":"쇠소깍로","Position":{"lat":33.250526,"lon":126.62091}}
{"Spot_Name":"수악 (물오름)","Spot_Addr":"제주특별자치도 서귀포시 남원읍 516로 1042","Spot_Score":0,"Spot_Views":4299,"Spot_Time":"2022-08-11","Spot_Field":"남원읍","Position":{"lat":33.3616666,"lon":126.5291666}}
{"Spot_Name":"타보카 월정리투명카약","Spot_Addr":"제주특별자치도 제주시 구좌읍 월정리 1400-4","Spot_Score":5,"Spot_Views":7709,"Spot_Time":"2022-08-11","Spot_Field":"구좌읍","Position":{"lat":33.56346,"lon":126.78025}}
{"Spot_Name":"신양포구","Spot_Addr":"제주특별자치도 서귀포시 성산읍 고성리","Spot_Score":0,"Spot_Views":1587,"Spot_Time":"2022-08-11","Spot_Field":"성산읍","Position":{"lat":33.444576,"lon":126.9095}}
{"Spot_Name":"지포뮤지엄","Spot_Addr":"제주특별자치도 서귀포시 성산읍 섭지코지로 107","Spot_Score":5,"Spot_Views":10973,"Spot_Time":"2022-08-11","Spot_Field":"성산읍","Position":{"lat":33.430576,"lon":126.92777}}
{"Spot_Name":"방주오름 (방지오름, 방제오름)","Spot_Addr":"제주특별자치도 제주시 한림읍 명월리 679","Spot_Score":0,"Spot_Views":1416,"Spot_Time":"2022-08-11","Spot_Field":"한림읍","Position":{"lat":33.3772555,"lon":126.2851832}}
{"Spot_Name":"천지연폭포","Spot_Addr":"제주특별자치도 서귀포시 남성중로 2-15","Spot_Score":5,"Spot_Views":322025,"Spot_Time":"2022-08-11","Spot_Field":"남성중로","Position":{"lat":33.2447173,"lon":126.5598201}}
{"Spot_Name":"쌍용굴(한림공원)","Spot_Addr":"제주특별자치도 제주시 한림읍 한림로 300","Spot_Score":5,"Spot_Views":11702,"Spot_Time":"2022-08-11","Spot_Field":"한림읍","Position":{"lat":33.3894949,"lon":126.2396825}}
{"Spot_Name":"쉬리의언덕","Spot_Addr":"제주특별자치도 서귀포시 중문관광로72번길 114","Spot_Score":5,"Spot_Views":15481,"Spot_Time":"2022-08-11","Spot_Field":"중문관광로72번길","Position":{"lat":33.244597,"lon":126.406077}}
{"Spot_Name":"시민축구장","Spot_Addr":"제주특별자치도 서귀포시 토평남로 47-13","Spot_Score":0,"Spot_Views":963,"Spot_Time":"2022-08-11","Spot_Field":"토평남로","Position":{"lat":33.2617646,"lon":126.5893096}}
{"Spot_Name":"제주돌마을공원","Spot_Addr":"제주특별자치도 제주시 한림읍 금능남로 421","Spot_Score":5,"Spot_Views":8465,"Spot_Time":"2022-08-11","Spot_Field":"한림읍","Position":{"lat":33.3537549,"lon":126.2536813}}
{"Spot_Name":"삼매봉","Spot_Addr":"제주특별자치도 서귀포시 남성로115번길 83","Spot_Score":5,"Spot_Views":5157,"Spot_Time":"2022-08-11","Spot_Field":"남성로115번길","Position":{"lat":33.2639577,"lon":126.5507293}}
{"Spot_Name":"삼사석","Spot_Addr":"제주특별자치도 제주시 화북1동 1380-1","Spot_Score":0,"Spot_Views":2539,"Spot_Time":"2022-08-11","Spot_Field":"화북1동","Position":{"lat":33.521027,"lon":126.5741}}
{"Spot_Name":"제주월드컵경기장","Spot_Addr":"제주특별자치도 서귀포시 월드컵로 33","Spot_Score":4,"Spot_Views":48801,"Spot_Time":"2022-08-11","Spot_Field":"월드컵로","Position":{"lat":33.2472388,"lon":126.5092079}}
{"Spot_Name":"안돌오름","Spot_Addr":"제주특별자치도 제주시 구좌읍 송당리 산 66-2","Spot_Score":5,"Spot_Views":7434,"Spot_Time":"2022-08-11","Spot_Field":"구좌읍","Position":{"lat":33.45711281,"lon":126.756355}}
{"Spot_Name":"붉은오름(표선면)","Spot_Addr":"제주특별자치도 서귀포시 표선면 남조로 1487-73","Spot_Score":5,"Spot_Views":7569,"Spot_Time":"2022-08-11","Spot_Field":"표선면","Position":{"lat":33.39796786,"lon":126.6801269}}
{"Spot_Name":"제주베니스랜드","Spot_Addr":"제주특별자치도 서귀포시 성산읍 난산리 2575","Spot_Score":5,"Spot_Views":32449,"Spot_Time":"2022-08-11","Spot_Field":"성산읍","Position":{"lat":33.416195,"lon":126.840904}}
{"Spot_Name":"붉은오름 자연휴양림","Spot_Addr":"제주특별자치도 서귀포시 표선면 남조로 1487-73","Spot_Score":5,"Spot_Views":44617,"Spot_Time":"2022-08-11","Spot_Field":"표선면","Position":{"lat":33.395905,"lon":126.669785}}
{"Spot_Name":"서귀포자연휴양림","Spot_Addr":"제주특별자치도 서귀포시 1100로 882","Spot_Score":5,"Spot_Views":19932,"Spot_Time":"2022-08-11","Spot_Field":"1100로","Position":{"lat":33.31167,"lon":126.45876}}
{"Spot_Name":"엉알해안","Spot_Addr":"제주특별자치도 제주시 한경면 고산리 3427-33","Spot_Score":5,"Spot_Views":5511,"Spot_Time":"2022-08-11","Spot_Field":"한경면","Position":{"lat":33.29957022,"lon":126.1674244}}
{"Spot_Name":"비양도","Spot_Addr":"제주특별자치도 제주시 한림읍 협재리","Spot_Score":5,"Spot_Views":38288,"Spot_Time":"2022-08-11","Spot_Field":"한림읍","Position":{"lat":33.40883871,"lon":126.2278571}}
{"Spot_Name":"산세미오름 (삼산이오름)","Spot_Addr":"제주특별자치도 제주시 애월읍 고성남길 29-11","Spot_Score":0,"Spot_Views":1454,"Spot_Time":"2022-08-11","Spot_Field":"애월읍","Position":{"lat":33.4108019,"lon":126.433164}}
{"Spot_Name":"한라산영실코스","Spot_Addr":"제주특별자치도 서귀포시 영실로 246","Spot_Score":5,"Spot_Views":83741,"Spot_Time":"2022-08-11","Spot_Field":"영실로","Position":{"lat":33.3402,"lon":126.47921}}
{"Spot_Name":"강창학 종합경기장","Spot_Addr":"제주특별자치도 서귀포시 중산간서로 95","Spot_Score":0,"Spot_Views":1749,"Spot_Time":"2022-08-11","Spot_Field":"중산간서로","Position":{"lat":33.26065,"lon":126.49956}}
{"Spot_Name":"민오름(조천읍)","Spot_Addr":"제주특별자치도 제주시 조천읍 선흘리 산 141","Spot_Score":4,"Spot_Views":3527,"Spot_Time":"2022-08-11","Spot_Field":"조천읍","Position":{"lat":33.4748404,"lon":126.4950266}}
{"Spot_Name":"그랑블루호(선상낚시)","Spot_Addr":"제주특별자치도 서귀포시 남원읍 위미중앙로180번길 10","Spot_Score":0,"Spot_Views":4826,"Spot_Time":"2022-08-11","Spot_Field":"남원읍","Position":{"lat":33.2746809,"lon":126.6626636}}
{"Spot_Name":"비자림","Spot_Addr":"제주특별자치도 제주시 구좌읍 비자숲길 55","Spot_Score":5,"Spot_Views":457642,"Spot_Time":"2022-08-11","Spot_Field":"구좌읍","Position":{"lat":33.491318,"lon":126.811386}}
{"Spot_Name":"삼각봉","Spot_Addr":"제주특별자치도 제주시 1100로 2070-61","Spot_Score":5,"Spot_Views":3581,"Spot_Time":"2022-08-11","Spot_Field":"1100로","Position":{"lat":33.3616666,"lon":126.5291666}}
{"Spot_Name":"김만덕객주","Spot_Addr":"제주특별자치도 제주시 임항로 68","Spot_Score":5,"Spot_Views":11278,"Spot_Time":"2022-08-11","Spot_Field":"임항로","Position":{"lat":33.5164883,"lon":126.5322757}}
{"Spot_Name":"마원","Spot_Addr":"제주특별자치도 제주시 조천읍 선흘남4길 264-17","Spot_Score":4,"Spot_Views":6921,"Spot_Time":"2022-08-11","Spot_Field":"조천읍","Position":{"lat":33.4593556,"lon":126.7033584}}
{"Spot_Name":"법정악(법정이)","Spot_Addr":"제주특별자치도 서귀포시 영실로 246 영실매표소","Spot_Score":5,"Spot_Views":1546,"Spot_Time":"2022-08-11","Spot_Field":"영실로","Position":{"lat":33.31383,"lon":126.46973}}
{"Spot_Name":"고내리포구","Spot_Addr":"제주특별자치도 제주시 애월읍 고내리","Spot_Score":5,"Spot_Views":3142,"Spot_Time":"2022-08-11","Spot_Field":"애월읍","Position":{"lat":33.46709,"lon":126.33758}}
{"Spot_Name":"빌레못동굴","Spot_Addr":"제주특별자치도 제주시 애월읍 어음리 1391","Spot_Score":5,"Spot_Views":14152,"Spot_Time":"2022-08-11","Spot_Field":"애월읍","Position":{"lat":33.408165,"lon":126.35178}}
{"Spot_Name":"대장금촬영지(제주민속촌)","Spot_Addr":"제주특별자치도 서귀포시 표선면 민속해안로 631-34","Spot_Score":5,"Spot_Views":13861,"Spot_Time":"2022-08-11","Spot_Field":"표선면","Position":{"lat":33.322346,"lon":126.841484}}
{"Spot_Name":"제주유람선","Spot_Addr":"제주특별자치도 제주시 도공로 2","Spot_Score":5,"Spot_Views":6164,"Spot_Time":"2022-08-11","Spot_Field":"도공로","Position":{"lat":33.5061061,"lon":126.4650426}}
{"Spot_Name":"묵리해안쉼터","Spot_Addr":"제주특별자치도 제주시 추자면 추자로 376-6","Spot_Score":0,"Spot_Views":1947,"Spot_Time":"2022-08-11","Spot_Field":"추자면","Position":{"lat":33.9449269,"lon":126.312162}}
{"Spot_Name":"삼형제오름","Spot_Addr":"제주특별자치도 제주시 애월읍 평화로 2901-1","Spot_Score":0,"Spot_Views":1226,"Spot_Time":"2022-08-11","Spot_Field":"애월읍","Position":{"lat":33.35831755,"lon":126.4522552}}
{"Spot_Name":"별도포구","Spot_Addr":"제주특별자치도 제주시 화북1동 4269-12","Spot_Score":0,"Spot_Views":1498,"Spot_Time":"2022-08-11","Spot_Field":"화북1동","Position":{"lat":33.52501,"lon":126.564995}}
{"Spot_Name":"사계해안도로","Spot_Addr":"제주특별자치도 서귀포시 안덕면 사계리","Spot_Score":4,"Spot_Views":6939,"Spot_Time":"2022-08-11","Spot_Field":"안덕면","Position":{"lat":33.21973,"lon":126.29425}}
{"Spot_Name":"참굴비조형물","Spot_Score":0,"Spot_Views":2117,"Spot_Time":"2022-08-11","Position":{"lat":33.952576,"lon":126.30432}}
{"Spot_Name":"테디베어사파리 테지움","Spot_Addr":"제주특별자치도 제주시 애월읍 평화로 2159","Spot_Score":5,"Spot_Views":21616,"Spot_Time":"2022-08-11","Spot_Field":"애월읍","Position":{"lat":33.4194584,"lon":126.383518}}
{"Spot_Name":"판포오름 (널개오름, 板浦岳)","Spot_Addr":"제주특별자치도 제주시 한경면 판포리 934","Spot_Score":5,"Spot_Views":2772,"Spot_Time":"2022-08-11","Spot_Field":"한경면","Position":{"lat":33.357872,"lon":126.2126}}
{"Spot_Name":"고내봉(고내오름,고니오름,망오름)","Spot_Addr":"제주특별자치도 제주시 애월읍 고내리 산 3-1","Spot_Score":5,"Spot_Views":3628,"Spot_Time":"2022-08-11","Spot_Field":"애월읍","Position":{"lat":33.460022,"lon":126.34064}}
{"Spot_Name":"예초리포구","Spot_Addr":"제주특별자치도 제주시 추자면 추자로 753","Spot_Score":0,"Spot_Views":1795,"Spot_Time":"2022-08-11","Spot_Field":"추자면","Position":{"lat":33.9557594,"lon":126.3324318}}
{"Spot_Name":"추자도 숭어체험장","Spot_Addr":"제주특별자치도 제주시 추자면 석두리길 4","Spot_Score":5,"Spot_Views":3597,"Spot_Time":"2022-08-11","Spot_Field":"추자면","Position":{"lat":33.93998,"lon":126.32354}}
{"Spot_Name":"통오름","Spot_Addr":"제주특별자치도 서귀포시 성산읍 신산리 1754-1","Spot_Score":5,"Spot_Views":2884,"Spot_Time":"2022-08-11","Spot_Field":"성산읍","Position":{"lat":33.395042,"lon":126.85444}}
{"Spot_Name":"송죽사터","Spot_Addr":"제주특별자치도 서귀포시 대정읍 안성리","Spot_Score":0,"Spot_Views":1749,"Spot_Time":"2022-08-11","Spot_Field":"대정읍","Position":{"lat":33.250626,"lon":126.27805}}
{"Spot_Name":"홍가시나무길(탐라대)","Spot_Addr":"제주특별자치도 서귀포시 1100로 506","Spot_Score":5,"Spot_Views":4029,"Spot_Time":"2022-08-11","Spot_Field":"1100로","Position":{"lat":33.276367,"lon":126.44766}}
{"Spot_Name":"해피맘하우스","Spot_Addr":"제주특별자치도 제주시 애월읍 애월해안로 306-3","Spot_Score":0,"Spot_Views":5667,"Spot_Time":"2022-08-11","Spot_Field":"애월읍","Position":{"lat":33.4488627,"lon":126.3042586}}
{"Spot_Name":"족은바리메","Spot_Addr":"제주특별자치도 제주시 애월읍 상가리 산 124","Spot_Score":0,"Spot_Views":2288,"Spot_Time":"2022-08-11","Spot_Field":"애월읍","Position":{"lat":33.44355792,"lon":126.3533489}}
{"Spot_Name":"제주에코승마장(구.제주승마장)","Spot_Addr":"제주특별자치도 제주시 조천읍 교래리 39-3번지 (비자림로 1065)","Spot_Score":0,"Spot_Views":8002,"Spot_Time":"2022-08-11","Spot_Field":"조천읍","Position":{"lat":33.4276176,"lon":126.6665803}}
{"Spot_Name":"대왕산 (왕뫼, 왕메, 왕미)","Spot_Addr":"제주특별자치도 서귀포시 성산읍 수산리 1429","Spot_Score":0,"Spot_Views":2164,"Spot_Time":"2022-08-11","Spot_Field":"성산읍","Position":{"lat":33.457447,"lon":126.87257}}
{"Spot_Name":"까끄래기오름","Spot_Addr":"제주시 조천읍 교래리 128","Spot_Score":0,"Spot_Views":1777,"Spot_Time":"2022-08-11","Spot_Field":"조천읍","Position":{"lat":33.4276176,"lon":126.6665803}}
{"Spot_Name":"본태박물관","Spot_Addr":"제주특별자치도 서귀포시 안덕면 산록남로762번길 69","Spot_Score":4,"Spot_Views":33743,"Spot_Time":"2022-08-11","Spot_Field":"안덕면","Position":{"lat":33.303474,"lon":126.39206}}
{"Spot_Name":"그랑블루호 선상낚시","Spot_Addr":"제주특별자치도 서귀포시 남원읍 위미중앙로180번길 10","Spot_Score":0,"Spot_Views":2909,"Spot_Time":"2022-08-11","Spot_Field":"남원읍","Position":{"lat":33.274693,"lon":126.662605}}
{"Spot_Name":"소남머리","Spot_Addr":"제주특별자치도 서귀포시 칠십리로 145","Spot_Score":0,"Spot_Views":3455,"Spot_Time":"2022-08-11","Spot_Field":"칠십리로","Position":{"lat":33.2442936,"lon":126.5691064}}
{"Spot_Name":"송당본향당","Spot_Addr":"제주특별자치도 제주시 구좌읍 송당리","Spot_Score":5,"Spot_Views":7418,"Spot_Time":"2022-08-11","Spot_Field":"구좌읍","Position":{"lat":33.45618,"lon":126.76734}}
{"Spot_Name":"논짓물","Spot_Addr":"제주특별자치도 서귀포시 하예동","Spot_Score":5,"Spot_Views":10241,"Spot_Time":"2022-08-11","Spot_Field":"하예동","Position":{"lat":33.237144,"lon":126.3893}}
{"Spot_Name":"제주불빛정원 테마파크","Spot_Addr":"제주특별자치도 제주시 애월읍 평화로 2346","Spot_Score":0,"Spot_Views":25126,"Spot_Time":"2022-08-11","Spot_Field":"애월읍","Position":{"lat":33.4222395,"lon":126.4092532}}
{"Spot_Name":"송악산 진지동굴","Spot_Addr":"제주특별자치도 서귀포시 대정읍 상모리","Spot_Score":5,"Spot_Views":11015,"Spot_Time":"2022-08-11","Spot_Field":"대정읍","Position":{"lat":33.19995931,"lon":126.2932269}}
{"Spot_Name":"김녕요트투어","Spot_Addr":"제주특별자치도 제주시 구좌읍 구좌해안로 229-16","Spot_Score":5,"Spot_Views":21180,"Spot_Time":"2022-08-11","Spot_Field":"구좌읍","Position":{"lat":33.5582139,"lon":126.7373381}}
{"Spot_Name":"영주산","Spot_Addr":"제주특별자치도 서귀포시 표선면 번영로","Spot_Score":5,"Spot_Views":10795,"Spot_Time":"2022-08-11","Spot_Field":"표선면","Position":{"lat":33.405403,"lon":126.79736}}
{"Spot_Name":"공천포구","Spot_Addr":"제주특별자치도 서귀포시 남원읍 신례리","Spot_Score":5,"Spot_Views":1943,"Spot_Time":"2022-08-11","Spot_Field":"남원읍","Position":{"lat":33.26312,"lon":126.64165}}
{"Spot_Name":"모슬봉 (모슬개오름)","Spot_Addr":"제주특별자치도 서귀포시 대정읍 상모로191번길","Spot_Score":5,"Spot_Views":2930,"Spot_Time":"2022-08-11","Spot_Field":"대정읍","Position":{"lat":33.23837459,"lon":126.2580031}}
{"Spot_Name":"중문승마공원","Spot_Addr":"제주특별자치도 서귀포시 이어도로 244","Spot_Score":0,"Spot_Views":3829,"Spot_Time":"2022-08-11","Spot_Field":"이어도로","Position":{"lat":33.24225,"lon":126.44533}}
{"Spot_Name":"샛개오리","Spot_Addr":"제주특별자치도 제주시 516로 (용강동)","Spot_Score":0,"Spot_Views":1131,"Spot_Time":"2022-08-11","Spot_Field":"516로","Position":{"lat":33.42579,"lon":126.614136}}
{"Spot_Name":"불탑사 (5층석탑)","Spot_Addr":"제주특별자치도 제주시 원당로16길 41","Spot_Score":0,"Spot_Views":3356,"Spot_Time":"2022-08-11","Spot_Field":"원당로16길","Position":{"lat":33.5291414,"lon":126.5979893}}
{"Spot_Name":"보목포구","Spot_Addr":"제주특별자치도 서귀포시 보목포로 46","Spot_Score":5,"Spot_Views":2858,"Spot_Time":"2022-08-11","Spot_Field":"보목포로","Position":{"lat":33.239265,"lon":126.606895}}
{"Spot_Name":"샘이오름","Spot_Addr":"제주특별자치도 제주시 조천읍 516로","Spot_Score":0,"Spot_Views":1727,"Spot_Time":"2022-08-11","Spot_Field":"조천읍","Position":{"lat":33.473995,"lon":126.66965}}
{"Spot_Name":"형제해안도로","Spot_Addr":"제주특별자치도 서귀포시 대정읍 상모리 1649-1","Spot_Score":5,"Spot_Views":6321,"Spot_Time":"2022-08-11","Spot_Field":"대정읍","Position":{"lat":33.20110262,"lon":126.2655368}}
{"Spot_Name":"번개과학체험관(폐업)","Spot_Addr":"제주특별자치도 서귀포시 토평공단로 78-27","Spot_Score":5,"Spot_Views":16739,"Spot_Time":"2022-08-11","Spot_Field":"토평공단로","Position":{"lat":33.28972,"lon":126.58886}}
{"Spot_Name":"나틸다","Spot_Addr":"제주특별자치도 제주시 아란5길 31-6","Spot_Score":0,"Spot_Views":946,"Spot_Time":"2022-08-11","Spot_Field":"아란5길","Position":{"lat":33.4752059,"lon":126.5427649}}
{"Spot_Name":"제주난타","Spot_Addr":"제주특별자치도 제주시 선돌목동길 56-26","Spot_Score":5,"Spot_Views":9043,"Spot_Time":"2022-08-11","Spot_Field":"선돌목동길","Position":{"lat":33.445293,"lon":126.54792}}
{"Spot_Name":"용연카누클럽","Spot_Addr":"제주특별자치도 제주시 용담2동 438","Spot_Score":0,"Spot_Views":7136,"Spot_Time":"2022-08-11","Spot_Field":"용담2동","Position":{"lat":33.5156,"lon":126.5140267}}
{"Spot_Name":"케이제주씨워킹","Spot_Addr":"제주특별자치도 서귀포시 대정읍 최남단해안로 120","Spot_Score":5,"Spot_Views":27511,"Spot_Time":"2022-08-11","Spot_Field":"대정읍","Position":{"lat":33.2100551,"lon":126.2585746}}
{"Spot_Name":"제주잠수함(리더스클럽)","Spot_Addr":"제주특별자치도 제주시 조천읍 신흥리 1-11","Spot_Score":0,"Spot_Views":6716,"Spot_Time":"2022-08-11","Spot_Field":"조천읍","Position":{"lat":33.55131,"lon":126.65275}}
{"Spot_Name":"모구리오름","Spot_Addr":"제주특별자치도 서귀포시 성산읍 서성일로 260","Spot_Score":5,"Spot_Views":4271,"Spot_Time":"2022-08-11","Spot_Field":"성산읍","Position":{"lat":33.4059591,"lon":126.821694}}
{"Spot_Name":"범섬","Spot_Addr":"제주특별자치도 서귀포시 법환동","Spot_Score":5,"Spot_Views":17001,"Spot_Time":"2022-08-11","Spot_Field":"법환동","Position":{"lat":33.218575,"lon":126.517075}}
{"Spot_Name":"남문지못","Spot_Addr":"제주특별자치도 서귀포시 대정읍 인성리 392","Spot_Score":0,"Spot_Views":3373,"Spot_Time":"2022-08-11","Spot_Field":"대정읍","Position":{"lat":33.24656,"lon":126.276405}}
{"Spot_Name":"정의향교","Spot_Addr":"제주특별자치도 서귀포시 표선면 성읍서문로 14","Spot_Score":0,"Spot_Views":1894,"Spot_Time":"2022-08-11","Spot_Field":"표선면","Position":{"lat":33.4112985,"lon":126.7819256}}
{"Spot_Name":"천주교 순례길 - 김대건길","Spot_Addr":"제주특별자치도 제주시 한경면 고산로 6-3","Spot_Score":0,"Spot_Views":3514,"Spot_Time":"2022-08-11","Spot_Field":"한경면","Position":{"lat":33.301857,"lon":126.1801}}
{"Spot_Name":"북촌환해장성","Spot_Addr":"제주특별자치도 제주시 조천읍 북촌리","Spot_Score":0,"Spot_Views":1809,"Spot_Time":"2022-08-11","Spot_Field":"조천읍","Position":{"lat":33.536594,"lon":126.69666}}
{"Spot_Name":"제라진 제주오프로드 사파리","Spot_Addr":"제주특별자치도 제주시 조천읍 선교로 33","Spot_Score":0,"Spot_Views":6071,"Spot_Time":"2022-08-11","Spot_Field":"조천읍","Position":{"lat":33.4777041,"lon":126.7135515}}
{"Spot_Name":"제주국제예술센터","Spot_Addr":"제주특별자치도 서귀포시 대정읍 서삼중로 117","Spot_Score":0,"Spot_Views":3053,"Spot_Time":"2022-08-11","Spot_Field":"대정읍","Position":{"lat":33.27183,"lon":126.19944}}
{"Spot_Name":"아프리카박물관","Spot_Addr":"제주특별자치도 서귀포시 이어도로 49","Spot_Score":5,"Spot_Views":15289,"Spot_Time":"2022-08-11","Spot_Field":"이어도로","Position":{"lat":33.23984,"lon":126.429146}}
{"Spot_Name":"솔담현경철한의원","Spot_Addr":"제주특별자치도 제주시 1100로 3055","Spot_Score":0,"Spot_Views":873,"Spot_Time":"2022-08-11","Spot_Field":"1100로","Position":{"lat":33.4802375,"lon":126.4865364}}
{"Spot_Name":"박수기정","Spot_Addr":"제주특별자치도 서귀포시 안덕면 난드르로 90-25","Spot_Score":5,"Spot_Views":21316,"Spot_Time":"2022-08-11","Spot_Field":"안덕면","Position":{"lat":33.2371317,"lon":126.358753}}
{"Spot_Name":"입산봉(삿갓오름)","Spot_Addr":"제주특별자치도 제주시 구좌읍 김녕리 1033-19","Spot_Score":0,"Spot_Views":2354,"Spot_Time":"2022-08-11","Spot_Field":"구좌읍","Position":{"lat":33.54863,"lon":126.756676}}
{"Spot_Name":"캔디원","Spot_Addr":"제주특별자치도 제주시 조천읍 선교로 384","Spot_Score":0,"Spot_Views":4311,"Spot_Time":"2022-08-11","Spot_Field":"조천읍","Position":{"lat":33.4708686,"lon":126.7078957}}
{"Spot_Name":"핸즈웍스","Spot_Addr":"제주특별자치도 제주시 한림읍 귀덕로 78","Spot_Score":0,"Spot_Views":3657,"Spot_Time":"2022-08-11","Spot_Field":"한림읍","Position":{"lat":33.4376238,"lon":126.2970018}}
{"Spot_Name":"귀덕연대","Spot_Addr":"제주특별자치도 제주시 한림읍 귀덕14길 14-5","Spot_Score":3,"Spot_Views":2646,"Spot_Time":"2022-08-11","Spot_Field":"한림읍","Position":{"lat":33.4421307,"lon":126.2934016}}
{"Spot_Name":"유민미술관","Spot_Addr":"제주특별자치도 서귀포시 성산읍 고성리 21","Spot_Score":0,"Spot_Views":14514,"Spot_Time":"2022-08-11","Spot_Field":"성산읍","Position":{"lat":33.429596,"lon":126.9321}}
{"Spot_Name":"모라이","Spot_Addr":"제주특별자치도 서귀포시 산록남로 (색달동)","Spot_Score":0,"Spot_Views":2168,"Spot_Time":"2022-08-11","Spot_Field":"산록남로","Position":{"lat":33.30114,"lon":126.4141}}
{"Spot_Name":"천주교 순례길 - 김기량길","Spot_Addr":"제주특별자치도 제주시 조천읍 조천2길 19","Spot_Score":0,"Spot_Views":2337,"Spot_Time":"2022-08-11","Spot_Field":"조천읍","Position":{"lat":33.532906,"lon":126.63163}}
{"Spot_Name":"제주레이크힐스컨트리클럽","Spot_Addr":"제주특별자치도 서귀포시 산록남로 1391 (중문동)","Spot_Score":0,"Spot_Views":2300,"Spot_Time":"2022-08-11","Spot_Field":"산록남로","Position":{"lat":33.306812,"lon":126.43271}}
{"Spot_Name":"최영장군사당","Spot_Addr":"제주특별자치도 제주시 추자면 대서3길 10","Spot_Score":0,"Spot_Views":7627,"Spot_Time":"2022-08-11","Spot_Field":"추자면","Position":{"lat":33.964085,"lon":126.295525}}
{"Spot_Name":"어리목계곡","Spot_Addr":"제주특별자치도 제주시 1100로 2070-61","Spot_Score":5,"Spot_Views":8612,"Spot_Time":"2022-08-11","Spot_Field":"1100로","Position":{"lat":33.3967883,"lon":126.4878526}}
{"Spot_Name":"별방진","Spot_Addr":"제주특별자치도 제주시 구좌읍 하도리 3354","Spot_Score":4,"Spot_Views":8326,"Spot_Time":"2022-08-11","Spot_Field":"구좌읍","Position":{"lat":33.52612,"lon":126.88438}}
{"Spot_Name":"병곳오름 (벵곳오름, 안좌오름)","Spot_Addr":"제주특별자치도 서귀포시 표선면 가시리 산 8","Spot_Score":5,"Spot_Views":1438,"Spot_Time":"2022-08-11","Spot_Field":"표선면","Position":{"lat":33.368008,"lon":126.74857}}
{"Spot_Name":"물영아리오름","Spot_Addr":"제주특별자치도 서귀포시 남원읍 태수로 552","Spot_Score":5,"Spot_Views":27166,"Spot_Time":"2022-08-11","Spot_Field":"남원읍","Position":{"lat":33.3686617,"lon":126.6932064}}
{"Spot_Name":"다빈치뮤지엄","Spot_Addr":"제주특별자치도 서귀포시 안덕면 산록남로 788","Spot_Score":5,"Spot_Views":2261,"Spot_Time":"2022-08-11","Spot_Field":"안덕면","Position":{"lat":33.319107,"lon":126.38509}}
{"Spot_Name":"저지오름(닥몰오름,새오름)","Spot_Addr":"제주특별자치도 제주시 한경면 저지리 산 51","Spot_Score":5,"Spot_Views":12566,"Spot_Time":"2022-08-11","Spot_Field":"한경면","Position":{"lat":33.333008,"lon":126.25095}}
{"Spot_Name":"김녕 지질트레일","Spot_Addr":"제주특별자치도 제주시 구좌읍 김녕로 209","Spot_Score":4,"Spot_Views":19757,"Spot_Time":"2022-08-11","Spot_Field":"구좌읍","Position":{"lat":33.5562,"lon":126.76165}}
{"Spot_Name":"테디베어뮤지엄제주","Spot_Addr":"제주특별자치도 서귀포시 중문관광로110번길 31","Spot_Score":5,"Spot_Views":24556,"Spot_Time":"2022-08-11","Spot_Field":"중문관광로110번길","Position":{"lat":33.25021,"lon":126.41223}}
{"Spot_Name":"물찻오름","Spot_Addr":"제주특별자치도 제주시 조천읍 교래길","Spot_Score":5,"Spot_Views":8664,"Spot_Time":"2022-08-11","Spot_Field":"조천읍","Position":{"lat":33.3983865,"lon":126.6796266}}
{"Spot_Name":"사라봉","Spot_Addr":"제주특별자치도 제주시 사라봉동길 61","Spot_Score":4,"Spot_Views":17070,"Spot_Time":"2022-08-11","Spot_Field":"사라봉동길","Position":{"lat":33.51839778,"lon":126.5439168}}
{"Spot_Name":"노을해안로","Spot_Addr":"제주특별자치도 서귀포시 대정읍 노을해안로 24","Spot_Score":5,"Spot_Views":3193,"Spot_Time":"2022-08-11","Spot_Field":"대정읍","Position":{"lat":33.24254,"lon":126.22441}}
{"Spot_Name":"당오름(안덕면)","Spot_Addr":"제주특별자치도 서귀포시 안덕면 동광리 산 68-1","Spot_Score":0,"Spot_Views":2759,"Spot_Time":"2022-08-11","Spot_Field":"안덕면","Position":{"lat":33.332428,"lon":126.3365}}
{"Spot_Name":"표선세화해안도로","Spot_Addr":"제주특별자치도 서귀포시 표선면 표선리","Spot_Score":5,"Spot_Views":9752,"Spot_Time":"2022-08-11","Spot_Field":"표선면","Position":{"lat":33.524757,"lon":126.8606}}
{"Spot_Name":"서귀포예술의전당","Spot_Addr":"제주특별자치도 서귀포시 태평로 270","Spot_Score":5,"Spot_Views":17515,"Spot_Time":"2022-08-11","Spot_Field":"태평로","Position":{"lat":33.24523,"lon":126.55175}}
{"Spot_Name":"매오름","Spot_Addr":"제주특별자치도 서귀포시 표선면 표선리 산 2","Spot_Score":0,"Spot_Views":3582,"Spot_Time":"2022-08-11","Spot_Field":"표선면","Position":{"lat":33.31865,"lon":126.81405}}
{"Spot_Name":"제주힐CC","Spot_Addr":"제주특별자치도 제주시 516로 2596-117","Spot_Score":0,"Spot_Views":2645,"Spot_Time":"2022-08-11","Spot_Field":"516로","Position":{"lat":33.4399611,"lon":126.6020248}}
{"Spot_Name":"들레오름 (月坪峰, 月來岳, 月下岳)","Spot_Addr":"제주특별자치도 제주시 첨단동길 89-29","Spot_Score":0,"Spot_Views":1058,"Spot_Time":"2022-08-11","Spot_Field":"첨단동길","Position":{"lat":33.4593529,"lon":126.5797073}}
{"Spot_Name":"제주롯데스카이힐컨트리클럽","Spot_Addr":"제주특별자치도 서귀포시 상예로 530","Spot_Score":5,"Spot_Views":4401,"Spot_Time":"2022-08-11","Spot_Field":"상예로","Position":{"lat":33.28456778,"lon":126.404932}}
{"Spot_Name":"메이즈랜드","Spot_Addr":"제주특별자치도 제주시 구좌읍 비자림로 2134-47","Spot_Score":5,"Spot_Views":80386,"Spot_Time":"2022-08-11","Spot_Field":"구좌읍","Position":{"lat":33.48875,"lon":126.80093}}
{"Spot_Name":"큰바리메오름","Spot_Addr":"제주특별자치도 제주시 애월읍 산록서로 15","Spot_Score":5,"Spot_Views":3465,"Spot_Time":"2022-08-11","Spot_Field":"애월읍","Position":{"lat":33.3659432,"lon":126.35644}}
{"Spot_Name":"생각하는정원","Spot_Addr":"제주특별자치도 제주시 한경면 녹차분재로 675","Spot_Score":5,"Spot_Views":50460,"Spot_Time":"2022-08-11","Spot_Field":"한경면","Position":{"lat":33.3257082,"lon":126.2552516}}
{"Spot_Name":"우도올레보트","Spot_Addr":"제주특별자치도 제주시 우도면 연평리 2562-1","Spot_Score":5,"Spot_Views":4737,"Spot_Time":"2022-08-11","Spot_Field":"우도면","Position":{"lat":33.501495,"lon":126.94424}}
{"Spot_Name":"카멜리아힐","Spot_Addr":"제주 서귀포시 안덕면 병악로 166","Spot_Score":5,"Spot_Views":192262,"Spot_Time":"2022-08-11","Spot_Field":"안덕면","Position":{"lat":33.289135,"lon":126.37011}}
{"Spot_Name":"문도지오름 (문돗지)","Spot_Addr":"제주특별자치도 제주시 한림읍 금악리 3444","Spot_Score":0,"Spot_Views":4909,"Spot_Time":"2022-08-11","Spot_Field":"한림읍","Position":{"lat":33.33229622,"lon":126.2520476}}
{"Spot_Name":"새끼오름 (샛기오름)","Spot_Addr":"제주특별자치도 서귀포시 표선면 번영로","Spot_Score":0,"Spot_Views":1207,"Spot_Time":"2022-08-11","Spot_Field":"표선면","Position":{"lat":33.37268,"lon":126.79713}}
{"Spot_Name":"재밋섬파크","Spot_Addr":"제주특별자치도 제주시 중앙로14길 18","Spot_Score":3,"Spot_Views":6309,"Spot_Time":"2022-08-11","Spot_Field":"중앙로14길","Position":{"lat":33.5116,"lon":126.52267}}
{"Spot_Name":"함덕카페거리","Spot_Addr":"제주특별자치도 제주시 조천읍 함덕리","Spot_Score":0,"Spot_Views":8967,"Spot_Time":"2022-08-11","Spot_Field":"조천읍","Position":{"lat":33.54264,"lon":126.66915}}
{"Spot_Name":"포니밸리","Spot_Addr":"제주특별자치도 서귀포시 표선면 번영로 2564-21","Spot_Score":5,"Spot_Views":5926,"Spot_Time":"2022-08-11","Spot_Field":"표선면","Position":{"lat":33.40256,"lon":126.77849}}
{"Spot_Name":"노루생태관찰원","Spot_Addr":"제주특별자치도 제주시 명림로 520","Spot_Score":5,"Spot_Views":20961,"Spot_Time":"2022-08-11","Spot_Field":"명림로","Position":{"lat":33.4087482,"lon":126.635052}}
{"Spot_Name":"가마오름","Spot_Addr":"제주특별자치도 제주시 한경면 청수서5길 63","Spot_Score":0,"Spot_Views":4687,"Spot_Time":"2022-08-11","Spot_Field":"한경면","Position":{"lat":33.3056558,"lon":126.249338}}
{"Spot_Name":"표선해수욕장","Spot_Addr":"제주특별자치도 서귀포시 표선면 표선리","Spot_Score":5,"Spot_Views":20737,"Spot_Time":"2022-08-11","Spot_Field":"표선면","Position":{"lat":33.32723069,"lon":126.8381014}}
{"Spot_Name":"이중섭거리","Spot_Addr":"제주특별자치도 서귀포시 이중섭로 4-1 (서귀동)","Spot_Score":5,"Spot_Views":54629,"Spot_Time":"2022-08-11","Spot_Field":"이중섭로","Position":{"lat":33.2476269,"lon":126.5641044}}
{"Spot_Name":"꽃썸","Spot_Addr":"서귀포시 안덕면 동광로 151","Spot_Score":4,"Spot_Views":7632,"Spot_Time":"2022-08-11","Spot_Field":"안덕면","Position":{"lat":33.309093,"lon":126.339615}}
{"Spot_Name":"방림원","Spot_Addr":"제주특별자치도 제주시 한경면 용금로 864","Spot_Score":4,"Spot_Views":12001,"Spot_Time":"2022-08-11","Spot_Field":"한경면","Position":{"lat":33.336983,"lon":126.26866}}
{"Spot_Name":"한울랜드","Spot_Addr":"제주특별자치도 제주시 구좌읍 동백로 458","Spot_Score":5,"Spot_Views":8965,"Spot_Time":"2022-08-11","Spot_Field":"구좌읍","Position":{"lat":33.518837,"lon":126.73904}}
{"Spot_Name":"소병악 (족은오름)","Spot_Addr":"제주특별자치도 서귀포시 안덕면 상창리 산 2-1","Spot_Score":0,"Spot_Views":1944,"Spot_Time":"2022-08-11","Spot_Field":"안덕면","Position":{"lat":33.309055,"lon":126.37453}}
{"Spot_Name":"숫모르편백나무숲길","Spot_Addr":"제주특별자치도 제주시 516로 2596","Spot_Score":5,"Spot_Views":8339,"Spot_Time":"2022-08-11","Spot_Field":"516로","Position":{"lat":33.430923,"lon":126.595764}}
{"Spot_Name":"소정방폭포","Spot_Addr":"제주특별자치도 서귀포시 칠십리로214번길 17-17","Spot_Score":4,"Spot_Views":10384,"Spot_Time":"2022-08-11","Spot_Field":"칠십리로214번길","Position":{"lat":33.2450745,"lon":126.5774938}}
{"Spot_Name":"협재포구","Spot_Addr":"제주특별자치도 제주시 한림읍 협재리","Spot_Score":5,"Spot_Views":3021,"Spot_Time":"2022-08-11","Spot_Field":"한림읍","Position":{"lat":33.39929,"lon":126.24321}}
{"Spot_Name":"황우지해안 열두굴","Spot_Addr":"제주특별자치도 서귀포시 서홍동 764-1","Spot_Score":5,"Spot_Views":8168,"Spot_Time":"2022-08-11","Spot_Field":"서홍동","Position":{"lat":33.23915,"lon":126.54786}}
{"Spot_Name":"족은사슴이오름","Spot_Addr":"제주특별자치도 서귀포시 표선면 녹산로 536","Spot_Score":0,"Spot_Views":1793,"Spot_Time":"2022-08-11","Spot_Field":"표선면","Position":{"lat":33.3988071,"lon":126.7063341}}
{"Spot_Name":"검멀레해변","Spot_Addr":"제주특별자치도 제주시 우도면 우도해안길","Spot_Score":5,"Spot_Views":27534,"Spot_Time":"2022-08-11","Spot_Field":"우도면","Position":{"lat":33.49698481,"lon":126.9686027}}
{"Spot_Name":"산방산탄산온천","Spot_Addr":"제주특별자치도 서귀포시 안덕면 사계북로 41번길 192","Spot_Score":5,"Spot_Views":69102,"Spot_Time":"2022-08-11","Spot_Field":"안덕면","Position":{"lat":33.248665,"lon":126.29896}}
{"Spot_Name":"여미지식물원","Spot_Addr":"제주특별자치도 서귀포시 중문관광로 93","Spot_Score":5,"Spot_Views":32949,"Spot_Time":"2022-08-11","Spot_Field":"중문관광로","Position":{"lat":33.252617,"lon":126.41435}}
{"Spot_Name":"태흥포구","Spot_Addr":"제주특별자치도 서귀포시 남원읍 태흥리","Spot_Score":5,"Spot_Views":1555,"Spot_Time":"2022-08-11","Spot_Field":"남원읍","Position":{"lat":33.2868,"lon":126.75014}}
{"Spot_Name":"다려도","Spot_Addr":"제주특별자치도 제주시 조천읍 북촌리","Spot_Score":0,"Spot_Views":3390,"Spot_Time":"2022-08-11","Spot_Field":"조천읍","Position":{"lat":33.555916,"lon":126.69623}}
{"Spot_Name":"그랑블루 요트투어","Spot_Addr":"제주특별자치도 서귀포시 대포로 174","Spot_Score":5,"Spot_Views":8747,"Spot_Time":"2022-08-11","Spot_Field":"대포로","Position":{"lat":33.238754,"lon":126.439644}}
{"Spot_Name":"금룡사","Spot_Addr":"제주특별자치도 제주시 구좌읍 김녕로 148-11","Spot_Score":0,"Spot_Views":2402,"Spot_Time":"2022-08-11","Spot_Field":"구좌읍","Position":{"lat":33.5398407,"lon":126.746583}}
{"Spot_Name":"전농로 서사라문화거리","Spot_Addr":"제주특별자치도 제주시 서사로7길 27","Spot_Score":5,"Spot_Views":15545,"Spot_Time":"2022-08-11","Spot_Field":"서사로7길","Position":{"lat":33.506634,"lon":126.522415}}
{"Spot_Name":"왕이메오름","Spot_Addr":"제주특별자치도 서귀포시 안덕면 광평리 산 79","Spot_Score":4,"Spot_Views":4403,"Spot_Time":"2022-08-11","Spot_Field":"안덕면","Position":{"lat":33.340233,"lon":126.37479}}
{"Spot_Name":"바늘오름","Spot_Addr":"제주특별자치도 제주시 조천읍 교래리 산 108","Spot_Score":5,"Spot_Views":3322,"Spot_Time":"2022-08-11","Spot_Field":"조천읍","Position":{"lat":33.42869209,"lon":126.6682969}}
{"Spot_Name":"볼레낭길","Spot_Addr":"제주특별자치도 서귀포시 안덕면 감산리 1049","Spot_Score":5,"Spot_Views":2514,"Spot_Time":"2022-08-11","Spot_Field":"안덕면","Position":{"lat":33.235916,"lon":126.34946}}
{"Spot_Name":"중문색달해수욕장","Spot_Addr":"제주특별자치도 서귀포시 중문관광로72번길 29-51","Spot_Score":5,"Spot_Views":57748,"Spot_Time":"2022-08-11","Spot_Field":"중문관광로72번길","Position":{"lat":33.24499,"lon":126.41159}}
{"Spot_Name":"우도잠수함(제주씨월드)","Spot_Addr":"제주특별자치도 서귀포시 성산읍 성산등용로 130-21","Spot_Score":5,"Spot_Views":32139,"Spot_Time":"2022-08-11","Spot_Field":"성산읍","Position":{"lat":33.47211,"lon":126.9332}}
{"Spot_Name":"풋감마을 소길리 농어촌체험마을","Spot_Addr":"제주시 애월읍 소길1길 15","Spot_Score":0,"Spot_Views":1826,"Spot_Time":"2022-08-11","Spot_Field":"애월읍","Position":{"lat":33.440056,"lon":126.380005}}
{"Spot_Name":"아침미소목장","Spot_Addr":"제주특별자치도 제주시 첨단동길 160-20","Spot_Score":5,"Spot_Views":64708,"Spot_Time":"2022-08-11","Spot_Field":"첨단동길","Position":{"lat":33.45444,"lon":126.58662}}
{"Spot_Name":"부영컨트리클럽","Spot_Addr":"제주특별자치도 서귀포시 남원읍 남조로 960 부영CC","Spot_Score":0,"Spot_Views":3170,"Spot_Time":"2022-08-11","Spot_Field":"남원읍","Position":{"lat":33.358353,"lon":126.71365}}
{"Spot_Name":"김녕항","Spot_Addr":"제주특별자치도 제주시 구좌읍 김녕항1길 50-13","Spot_Score":0,"Spot_Views":2286,"Spot_Time":"2022-08-11","Spot_Field":"구좌읍","Position":{"lat":33.558033,"lon":126.74019}}
{"Spot_Name":"산방굴사","Spot_Addr":"제주특별자치도 서귀포시 안덕면 사계리 산 16","Spot_Score":5,"Spot_Views":73514,"Spot_Time":"2022-08-11","Spot_Field":"안덕면","Position":{"lat":33.243855,"lon":126.31332}}
{"Spot_Name":"대포포구","Spot_Addr":"제주특별자치도 서귀포시 대포로","Spot_Score":0,"Spot_Views":2293,"Spot_Time":"2022-08-11","Spot_Field":"대포로","Position":{"lat":33.243515,"lon":126.43522}}
{"Spot_Name":"거믄여해안경승지","Spot_Addr":"제주특별자치도 서귀포시 516로","Spot_Score":0,"Spot_Views":3845,"Spot_Time":"2022-08-11","Spot_Field":"516로","Position":{"lat":33.244373,"lon":126.58488}}
{"Spot_Name":"평대리해변","Spot_Addr":"제주특별자치도 제주시 구좌읍 평대리 515-24","Spot_Score":5,"Spot_Views":8434,"Spot_Time":"2022-08-11","Spot_Field":"구좌읍","Position":{"lat":33.53231,"lon":126.84808}}
{"Spot_Name":"해녀박물관","Spot_Addr":"제주특별자치도 제주시 구좌읍 해녀박물관길 26","Spot_Score":5,"Spot_Views":33257,"Spot_Time":"2022-08-11","Spot_Field":"구좌읍","Position":{"lat":33.5242827,"lon":126.8629097}}
{"Spot_Name":"제주현대미술관","Spot_Addr":"제주특별자치도 제주시 한경면 저지14길 35","Spot_Score":5,"Spot_Views":24628,"Spot_Time":"2022-08-11","Spot_Field":"한경면","Position":{"lat":33.34026,"lon":126.2663}}
{"Spot_Name":"남원큰엉해변","Spot_Addr":"제주특별자치도 서귀포시 남원읍 태위로 522-17","Spot_Score":5,"Spot_Views":12831,"Spot_Time":"2022-08-11","Spot_Field":"남원읍","Position":{"lat":33.27338,"lon":126.70375}}
{"Spot_Name":"제주민속박물관","Spot_Addr":"제주특별자치도 제주시 일주동로 293-1","Spot_Score":5,"Spot_Views":3190,"Spot_Time":"2022-08-11","Spot_Field":"일주동로","Position":{"lat":33.522133,"lon":126.57664}}
{"Spot_Name":"제주유리의성","Spot_Addr":"제주특별자치도 제주시 한경면 녹차분재로 462","Spot_Score":5,"Spot_Views":45038,"Spot_Time":"2022-08-11","Spot_Field":"한경면","Position":{"lat":33.314835,"lon":126.273445}}
{"Spot_Name":"따라비오름","Spot_Addr":"제주특별자치도 서귀포시 표선면 가시리 산 62","Spot_Score":5,"Spot_Views":23980,"Spot_Time":"2022-08-11","Spot_Field":"표선면","Position":{"lat":33.389156,"lon":126.75325}}
{"Spot_Name":"마라도잠수함","Spot_Addr":"제주특별자치도 서귀포시 안덕면 형제해안로 13","Spot_Score":4,"Spot_Views":22722,"Spot_Time":"2022-08-11","Spot_Field":"안덕면","Position":{"lat":33.22783,"lon":126.305435}}
{"Spot_Name":"더마파크","Spot_Addr":"제주특별자치도 제주시 한림읍 월림7길 155","Spot_Score":5,"Spot_Views":24251,"Spot_Time":"2022-08-11","Spot_Field":"한림읍","Position":{"lat":33.353992,"lon":126.24263}}
{"Spot_Name":"하멜상선전시관","Spot_Addr":"제주특별자치도 서귀포시 안덕면 사계남로216번길 24-30","Spot_Score":0,"Spot_Views":11850,"Spot_Time":"2022-08-11","Spot_Field":"안덕면","Position":{"lat":33.23343,"lon":126.31374}}
{"Spot_Name":"고근산(고공산)","Spot_Addr":"제주특별자치도 서귀포시 고근산로202번길 48","Spot_Score":0,"Spot_Views":8243,"Spot_Time":"2022-08-11","Spot_Field":"고근산로202번길","Position":{"lat":33.26679698,"lon":126.5137438}}
{"Spot_Name":"파군봉(바굼지오름)","Spot_Addr":"제주특별자치도 제주시 애월읍 상귀서길 95","Spot_Score":0,"Spot_Views":2574,"Spot_Time":"2022-08-11","Spot_Field":"애월읍","Position":{"lat":33.47847863,"lon":126.4124595}}
{"Spot_Name":"산방산","Spot_Addr":"제주특별자치도 서귀포시 안덕면 사계리 산 16","Spot_Score":5,"Spot_Views":54684,"Spot_Time":"2022-08-11","Spot_Field":"안덕면","Position":{"lat":33.236614,"lon":126.31289}}
{"Spot_Name":"삼양해수욕장","Spot_Addr":"제주특별자치도 제주시 삼양동","Spot_Score":4,"Spot_Views":18663,"Spot_Time":"2022-08-11","Spot_Field":"삼양동","Position":{"lat":33.525845,"lon":126.5863}}
{"Spot_Name":"싱계물 공원","Spot_Addr":"제주 제주시 한경면 신창리 1322-1","Spot_Score":5,"Spot_Views":12205,"Spot_Time":"2022-08-11","Spot_Field":"한경면","Position":{"lat":33.343376,"lon":126.173996}}
{"Spot_Name":"핀크스 골프클럽","Spot_Addr":"제주특별자치도 서귀포시 안덕면 산록남로 863","Spot_Score":4,"Spot_Views":3644,"Spot_Time":"2022-08-11","Spot_Field":"안덕면","Position":{"lat":33.3159979,"lon":126.387643}}
{"Spot_Name":"중앙병원","Spot_Addr":"제주특별자치도 제주시 월랑로 91","Spot_Score":0,"Spot_Views":3283,"Spot_Time":"2022-08-11","Spot_Field":"월랑로","Position":{"lat":33.4920436,"lon":126.4713907}}
{"Spot_Name":"북촌돌하르방미술관","Spot_Addr":"제주특별자치도 제주시 조천읍 북촌서1길 70","Spot_Score":5,"Spot_Views":25815,"Spot_Time":"2022-08-11","Spot_Field":"조천읍","Position":{"lat":33.5387743,"lon":126.6887213}}
{"Spot_Name":"제주불교성지 순례길 절로가는길 - 선정의 길","Spot_Addr":"제주특별자치도 서귀포시 516로771번길 59","Spot_Score":0,"Spot_Views":2300,"Spot_Time":"2022-08-11","Spot_Field":"516로771번길","Position":{"lat":33.319935,"lon":126.59309}}
{"Spot_Name":"우도보물섬레져","Spot_Addr":"제주특별자치도 제주시 우도면 우도해안길 336","Spot_Score":0,"Spot_Views":4364,"Spot_Time":"2022-08-11","Spot_Field":"우도면","Position":{"lat":33.508338,"lon":126.9441293}}
{"Spot_Name":"우도현대렌트","Spot_Addr":"제주특별자치도 제주시 우도면 우도해안길 336","Spot_Score":0,"Spot_Views":1577,"Spot_Time":"2022-08-11","Spot_Field":"우도면","Position":{"lat":33.508133,"lon":126.9439}}
{"Spot_Name":"서프라이즈테마파크","Spot_Addr":"제주특별자치도 제주시 조천읍 남조로 2243","Spot_Score":5,"Spot_Views":8102,"Spot_Time":"2022-08-11","Spot_Field":"조천읍","Position":{"lat":33.4819547,"lon":126.6406839}}
{"Spot_Name":"살핀오름","Spot_Addr":"제주특별자치도 제주시 애월읍 광령리 산 183-2","Spot_Score":0,"Spot_Views":1032,"Spot_Time":"2022-08-11","Spot_Field":"애월읍","Position":{"lat":33.367832,"lon":126.46191}}
{"Spot_Name":"소수산봉(족은물뫼)","Spot_Addr":"제주특별자치도 서귀포시 성산읍 고성리 887","Spot_Score":0,"Spot_Views":2330,"Spot_Time":"2022-08-11","Spot_Field":"성산읍","Position":{"lat":33.43848759,"lon":126.9018207}}
{"Spot_Name":"썬플라워의원","Spot_Addr":"제주특별자치도 제주시 한림읍 금능남로 127","Spot_Score":5,"Spot_Views":1277,"Spot_Time":"2022-08-11","Spot_Field":"한림읍","Position":{"lat":33.3760556,"lon":126.2441268}}
{"Spot_Name":"추자도","Spot_Addr":"제주특별자치도 제주시 추자면 추자도","Spot_Score":5,"Spot_Views":18893,"Spot_Time":"2022-08-11","Spot_Field":"추자면","Position":{"lat":33.947014,"lon":126.3201}}
{"Spot_Name":"마라도등대","Spot_Addr":"제주특별자치도 서귀포시 대정읍 가파리 642","Spot_Score":5,"Spot_Views":5406,"Spot_Time":"2022-08-11","Spot_Field":"대정읍","Position":{"lat":33.11671544,"lon":126.2695117}}
{"Spot_Name":"검은덕이(검은데기,금덕오름,검은덕오름,今德)","Spot_Score":0,"Spot_Views":863,"Spot_Time":"2022-08-11","Position":{"lat":33.439953,"lon":126.379875}}
{"Spot_Name":"높은오름","Spot_Addr":"제주특별자치도 제주시 구좌읍 송당리 산 213-1","Spot_Score":5,"Spot_Views":4364,"Spot_Time":"2022-08-11","Spot_Field":"구좌읍","Position":{"lat":33.45761407,"lon":126.7930905}}
{"Spot_Name":"대유ATV수렵사격랜드","Spot_Addr":"제주특별자치도 서귀포시 상예로 381","Spot_Score":0,"Spot_Views":4972,"Spot_Time":"2022-08-11","Spot_Field":"상예로","Position":{"lat":33.2775412,"lon":126.3953648}}
{"Spot_Name":"우도팔경레져","Spot_Addr":"제주특별자치도 제주시 우도면 우도해안길 73","Spot_Score":0,"Spot_Views":1261,"Spot_Time":"2022-08-11","Spot_Field":"우도면","Position":{"lat":33.49299,"lon":126.9511}}
{"Spot_Name":"동알오름","Spot_Addr":"제주특별자치도 서귀포시 대정읍 상모리 153","Spot_Score":0,"Spot_Views":2331,"Spot_Time":"2022-08-11","Spot_Field":"대정읍","Position":{"lat":33.207508,"lon":126.28816}}
{"Spot_Name":"섭지코지","Spot_Addr":"제주특별자치도 서귀포시 성산읍 섭지코지로 107","Spot_Score":5,"Spot_Views":200951,"Spot_Time":"2022-08-11","Spot_Field":"성산읍","Position":{"lat":33.4305782,"lon":126.9277688}}
{"Spot_Name":"화순리 유채꽃길","Spot_Addr":"제주특별자치도 서귀포시 안덕면 화순리 1230-4","Spot_Score":5,"Spot_Views":5029,"Spot_Time":"2022-08-11","Spot_Field":"안덕면","Position":{"lat":33.25176,"lon":126.33404}}
{"Spot_Name":"손지오름","Spot_Addr":"제주특별자치도 제주시 구좌읍 종달리 산 52","Spot_Score":0,"Spot_Views":3295,"Spot_Time":"2022-08-11","Spot_Field":"구좌읍","Position":{"lat":33.456177,"lon":126.81989}}
{"Spot_Name":"해비치컨트리클럽제주","Spot_Addr":"제주특별자치도 서귀포시 남원읍 원님로 399번길 319","Spot_Score":0,"Spot_Views":2134,"Spot_Time":"2022-08-11","Spot_Field":"남원읍","Position":{"lat":33.342895,"lon":126.6494133}}
{"Spot_Name":"조안베어뮤지엄","Spot_Addr":"제주특별자치도 서귀포시 대포로 113 (대포동)","Spot_Score":0,"Spot_Views":9050,"Spot_Time":"2022-08-11","Spot_Field":"대포로","Position":{"lat":33.2402778,"lon":126.4341667}}
{"Spot_Name":"예절이오름(여절악)","Spot_Addr":"제주특별자치도 서귀포시 남원읍 신흥리 산 18","Spot_Score":0,"Spot_Views":1416,"Spot_Time":"2022-08-11","Spot_Field":"남원읍","Position":{"lat":33.3372665,"lon":126.7408476}}
{"Spot_Name":"위미항","Spot_Addr":"제주특별자치도 서귀포시 남원읍 위미중앙로196번길 6-13","Spot_Score":5,"Spot_Views":5343,"Spot_Time":"2022-08-11","Spot_Field":"남원읍","Position":{"lat":33.2707092,"lon":126.6636358}}
{"Spot_Name":"성널오름 (성판악)","Spot_Addr":"제주특별자치도 서귀포시 남원읍 신례리","Spot_Score":5,"Spot_Views":8673,"Spot_Time":"2022-08-11","Spot_Field":"남원읍","Position":{"lat":33.37372,"lon":126.59245}}
{"Spot_Name":"서귀포칠십리시공원","Spot_Addr":"제주특별자치도 서귀포시 서홍동 576-9","Spot_Score":5,"Spot_Views":22816,"Spot_Time":"2022-08-11","Spot_Field":"서홍동","Position":{"lat":33.24609,"lon":126.5538}}
{"Spot_Name":"성읍목장","Spot_Addr":"제주특별자치도 서귀포시 표선면 성읍리 1734","Spot_Score":0,"Spot_Views":6093,"Spot_Time":"2022-08-11","Spot_Field":"표선면","Position":{"lat":33.404278,"lon":126.791985}}
{"Spot_Name":"설오름","Spot_Addr":"제주특별자치도 서귀포시 표선면 가시리 산 1","Spot_Score":4,"Spot_Views":1160,"Spot_Time":"2022-08-11","Spot_Field":"표선면","Position":{"lat":33.3456001,"lon":126.7895359}}
{"Spot_Name":"평수포구","Spot_Addr":"제주특별자치도 제주시 한림읍 한림해안로 297-1","Spot_Score":0,"Spot_Views":1916,"Spot_Time":"2022-08-11","Spot_Field":"한림읍","Position":{"lat":33.427593,"lon":126.263756}}
{"Spot_Name":"밝은오름 (벌근오름)","Spot_Addr":"제주특별자치도 서귀포시 안덕면 동광로","Spot_Score":0,"Spot_Views":1305,"Spot_Time":"2022-08-11","Spot_Field":"안덕면","Position":{"lat":33.35141,"lon":126.33616}}
{"Spot_Name":"돛오름","Spot_Addr":"제주특별자치도 제주시 구좌읍 송당리 산 3","Spot_Score":5,"Spot_Views":4208,"Spot_Time":"2022-08-11","Spot_Field":"구좌읍","Position":{"lat":33.499622,"lon":126.53119}}
{"Spot_Name":"성읍녹차마을","Spot_Addr":"제주특별자치도 서귀포시 표선면 중산간동로 4778","Spot_Score":5,"Spot_Views":13614,"Spot_Time":"2022-08-11","Spot_Field":"표선면","Position":{"lat":33.4112985,"lon":126.7819256}}
{"Spot_Name":"제주4.3평화공원","Spot_Addr":"제주특별자치도 제주시 명림로 430","Spot_Score":5,"Spot_Views":56328,"Spot_Time":"2022-08-11","Spot_Field":"명림로","Position":{"lat":33.45058,"lon":126.61812}}
{"Spot_Name":"성불오름","Spot_Addr":"제주 제주시 구좌읍 중산간동로 2532","Spot_Score":5,"Spot_Views":3165,"Spot_Time":"2022-08-11","Spot_Field":"구좌읍","Position":{"lat":33.42295,"lon":126.74975}}
{"Spot_Name":"마방목지","Spot_Addr":"제주특별자치도 제주시 516로 2480","Spot_Score":5,"Spot_Views":38389,"Spot_Time":"2022-08-11","Spot_Field":"516로","Position":{"lat":33.42824,"lon":126.60599}}
{"Spot_Name":"보롬이 오름","Spot_Addr":"제주특별자치도 서귀포시 대정읍 무릉리 3576","Spot_Score":0,"Spot_Views":1220,"Spot_Time":"2022-08-11","Spot_Field":"대정읍","Position":{"lat":33.27065,"lon":126.19232}}
{"Spot_Name":"제주컨트리클럽","Spot_Addr":"제주특별자치도 제주시 영평동 2263-5","Spot_Score":0,"Spot_Views":2124,"Spot_Time":"2022-08-11","Spot_Field":"영평동","Position":{"lat":33.43041,"lon":126.58238}}
{"Spot_Name":"명월성지","Spot_Addr":"제주특별자치도 제주시 한림읍 명월리 2236","Spot_Score":5,"Spot_Views":3844,"Spot_Time":"2022-08-11","Spot_Field":"한림읍","Position":{"lat":33.40050941,"lon":126.2612558}}
{"Spot_Name":"평화통일 불사리탑","Spot_Addr":"제주특별자치도 제주시 조천읍 일주동로 884","Spot_Score":3,"Spot_Views":3857,"Spot_Time":"2022-08-11","Spot_Field":"조천읍","Position":{"lat":33.532516,"lon":126.63599}}
{"Spot_Name":"둔지봉","Spot_Addr":"제주특별자치도 제주시 구좌읍 한동리 산 40","Spot_Score":5,"Spot_Views":2779,"Spot_Time":"2022-08-11","Spot_Field":"구좌읍","Position":{"lat":33.50136,"lon":126.79464}}
{"Spot_Name":"한라수목원","Spot_Addr":"제주특별자치도 제주시 수목원길 72","Spot_Score":5,"Spot_Views":41597,"Spot_Time":"2022-08-11","Spot_Field":"수목원길","Position":{"lat":33.469604,"lon":126.4918}}
{"Spot_Name":"세인트포골프장","Spot_Addr":"제주특별자치도 제주시 구좌읍 선유로 445-55","Spot_Score":0,"Spot_Views":3326,"Spot_Time":"2022-08-11","Spot_Field":"구좌읍","Position":{"lat":33.5199412,"lon":126.7412425}}
{"Spot_Name":"더럭초등학교(구, 더럭분교)","Spot_Addr":"제주특별자치도 제주시 애월읍 하가로 195","Spot_Score":5,"Spot_Views":37239,"Spot_Time":"2022-08-11","Spot_Field":"애월읍","Position":{"lat":33.453457,"lon":126.345276}}
{"Spot_Name":"월대천","Spot_Addr":"제주특별자치도 제주시 월대6길 5","Spot_Score":5,"Spot_Views":5886,"Spot_Time":"2022-08-11","Spot_Field":"월대6길","Position":{"lat":33.4935086,"lon":126.4360616}}
{"Spot_Name":"중엄리새물","Spot_Addr":"제주특별자치도 제주시 애월읍 애월해안로 10-2","Spot_Score":0,"Spot_Views":2230,"Spot_Time":"2022-08-11","Spot_Field":"애월읍","Position":{"lat":33.4654193,"lon":126.3169526}}
{"Spot_Name":"용두암","Spot_Addr":"제주특별자치도 제주시 용두암길 15","Spot_Score":5,"Spot_Views":70319,"Spot_Time":"2022-08-11","Spot_Field":"용두암길","Position":{"lat":33.5149624,"lon":126.5116869}}
{"Spot_Name":"차귀도 자구내포구","Spot_Addr":"제주특별자치도 제주시 한경면 노을해안로 1161","Spot_Score":5,"Spot_Views":2446,"Spot_Time":"2022-08-11","Spot_Field":"한경면","Position":{"lat":33.30922,"lon":126.165474}}
{"Spot_Name":"안세미 (명도오름,明道岳)","Spot_Addr":"제주특별자치도 제주시 번영로 940","Spot_Score":0,"Spot_Views":2062,"Spot_Time":"2022-08-11","Spot_Field":"번영로","Position":{"lat":33.47450589,"lon":126.6141965}}
{"Spot_Name":"보물섬하이킹","Spot_Addr":"제주특별자치도 제주시 용문로14길 14","Spot_Score":5,"Spot_Views":12647,"Spot_Time":"2022-08-11","Spot_Field":"용문로14길","Position":{"lat":33.50585,"lon":126.510254}}
{"Spot_Name":"부소악 (부소오름)","Spot_Addr":"제주특별자치도 제주시 조천읍 교래리 산 2","Spot_Score":0,"Spot_Views":1459,"Spot_Time":"2022-08-11","Spot_Field":"조천읍","Position":{"lat":33.37471269,"lon":126.591823}}
{"Spot_Name":"방선문","Spot_Addr":"제주특별자치도 제주시 종천길 39-1","Spot_Score":5,"Spot_Views":4270,"Spot_Time":"2022-08-11","Spot_Field":"종천길","Position":{"lat":33.45228391,"lon":126.5178168}}
{"Spot_Name":"법환포구","Spot_Addr":"제주특별자치도 서귀포시 막숙포로37번길 2","Spot_Score":5,"Spot_Views":7774,"Spot_Time":"2022-08-11","Spot_Field":"막숙포로37번길","Position":{"lat":33.237774,"lon":126.51579}}
{"Spot_Name":"월산봉","Spot_Addr":"제주특별자치도 서귀포시 중산간서로 95","Spot_Score":0,"Spot_Views":986,"Spot_Time":"2022-08-11","Spot_Field":"중산간서로","Position":{"lat":33.2615636,"lon":126.49447}}
{"Spot_Name":"이중섭거주지","Spot_Addr":"제주특별자치도 서귀포시 이중섭로 29","Spot_Score":5,"Spot_Views":8316,"Spot_Time":"2022-08-11","Spot_Field":"이중섭로","Position":{"lat":33.2455319,"lon":126.564526}}
{"Spot_Name":"일출랜드","Spot_Addr":"제주특별자치도 서귀포시 성산읍 중산간동로 4150-30","Spot_Score":5,"Spot_Views":34414,"Spot_Time":"2022-08-11","Spot_Field":"성산읍","Position":{"lat":33.38204,"lon":126.841965}}
{"Spot_Name":"웃밤(웃바매기,웃밤오름)","Spot_Addr":"제주특별자치도 제주시 조천읍 선흘리 산 84","Spot_Score":0,"Spot_Views":2181,"Spot_Time":"2022-08-11","Spot_Field":"조천읍","Position":{"lat":33.47828,"lon":126.71444}}
{"Spot_Name":"곤물","Spot_Addr":"제주특별자치도 서귀포시 안덕면 화순서서로64번길 64-4","Spot_Score":0,"Spot_Views":2922,"Spot_Time":"2022-08-11","Spot_Field":"안덕면","Position":{"lat":33.2518943,"lon":126.3328875}}
{"Spot_Name":"한담해변","Spot_Addr":"제주특별자치도 제주시 애월읍 애월로1길 26-4","Spot_Score":5,"Spot_Views":25092,"Spot_Time":"2022-08-11","Spot_Field":"애월읍","Position":{"lat":33.46004182,"lon":126.3105424}}
{"Spot_Name":"마오름(한경)","Spot_Addr":"제주특별자치도 제주시 한경면 저지리 산 56","Spot_Score":0,"Spot_Views":1952,"Spot_Time":"2022-08-11","Spot_Field":"한경면","Position":{"lat":33.33803,"lon":126.24381}}
{"Spot_Name":"유건에오름","Spot_Addr":"제주특별자치도 서귀포시 성산읍 난산리 2302","Spot_Score":5,"Spot_Views":2303,"Spot_Time":"2022-08-11","Spot_Field":"성산읍","Position":{"lat":33.413593,"lon":126.84679}}
{"Spot_Name":"성읍승마장","Spot_Addr":"제주특별자치도 서귀포시 표선면 번영로 2650","Spot_Score":0,"Spot_Views":3388,"Spot_Time":"2022-08-11","Spot_Field":"표선면","Position":{"lat":33.398746,"lon":126.78733}}
{"Spot_Name":"위미리 동백나무군락","Spot_Addr":"제주특별자치도 서귀포시 남원읍 위미중앙로300번길 23-7","Spot_Score":5,"Spot_Views":38749,"Spot_Time":"2022-08-11","Spot_Field":"남원읍","Position":{"lat":33.27326,"lon":126.675934}}
{"Spot_Name":"토끼섬","Spot_Addr":"제주특별자치도 제주시 구좌읍 하도리","Spot_Score":5,"Spot_Views":10502,"Spot_Time":"2022-08-11","Spot_Field":"구좌읍","Position":{"lat":33.52437537,"lon":126.9028257}}
{"Spot_Name":"엉또폭포","Spot_Addr":"제주특별자치도 서귀포시 염돈로 121-8 (강정동)","Spot_Score":5,"Spot_Views":21210,"Spot_Time":"2022-08-11","Spot_Field":"염돈로","Position":{"lat":33.26835518,"lon":126.4999688}}
{"Spot_Name":"알작지해변","Spot_Addr":"제주특별자치도 제주시 테우해안로 60","Spot_Score":5,"Spot_Views":14463,"Spot_Time":"2022-08-11","Spot_Field":"테우해안로","Position":{"lat":33.49593405,"lon":126.4391301}}
{"Spot_Name":"온평리 포구","Spot_Addr":"제주특별자치도 서귀포시 성산읍 온평리","Spot_Score":4,"Spot_Views":2803,"Spot_Time":"2022-08-11","Spot_Field":"성산읍","Position":{"lat":33.40161,"lon":126.90301}}
{"Spot_Name":"웃세오름(누운오름)","Spot_Addr":"제주특별자치도 제주시 애월읍 1100로 1579-25","Spot_Score":0,"Spot_Views":3049,"Spot_Time":"2022-08-11","Spot_Field":"애월읍","Position":{"lat":33.35865267,"lon":126.4607188}}
{"Spot_Name":"제지기오름","Spot_Addr":"제주특별자치도 서귀포시 보목동 275-1","Spot_Score":4,"Spot_Views":6987,"Spot_Time":"2022-08-11","Spot_Field":"보목동","Position":{"lat":33.242226,"lon":126.609375}}
{"Spot_Name":"가파초등학교 마라분교장","Spot_Addr":"제주특별자치도 서귀포시 대정읍 마라로 58","Spot_Score":0,"Spot_Views":2330,"Spot_Time":"2022-08-11","Spot_Field":"대정읍","Position":{"lat":33.119247,"lon":126.26694}}
{"Spot_Name":"성산항","Spot_Addr":"제주특별자치도 서귀포시 성산읍 성산등용로 129-21","Spot_Score":5,"Spot_Views":14608,"Spot_Time":"2022-08-11","Spot_Field":"성산읍","Position":{"lat":33.4721117,"lon":126.9331983}}
{"Spot_Name":"민오름(구좌읍)","Spot_Addr":"제주특별자치도 제주시 구좌읍 비자림로 1456","Spot_Score":5,"Spot_Views":3905,"Spot_Time":"2022-08-11","Spot_Field":"구좌읍","Position":{"lat":33.43717333,"lon":126.7618259}}
{"Spot_Name":"선운정사","Spot_Addr":"제주특별자치도 제주시 애월읍 구몰동길 65","Spot_Score":5,"Spot_Views":19411,"Spot_Time":"2022-08-11","Spot_Field":"애월읍","Position":{"lat":33.429344,"lon":126.307205}}
{"Spot_Name":"수산저수지","Spot_Addr":"제주특별자치도 제주시 애월읍 수산리 1","Spot_Score":5,"Spot_Views":2757,"Spot_Time":"2022-08-11","Spot_Field":"애월읍","Position":{"lat":33.470985,"lon":126.386505}}
{"Spot_Name":"북오름 (鼓岳)","Spot_Addr":"제주특별자치도 제주시 구좌읍 덕천리 산 69","Spot_Score":5,"Spot_Views":1170,"Spot_Time":"2022-08-11","Spot_Field":"구좌읍","Position":{"lat":33.48679,"lon":126.73916}}
{"Spot_Name":"지그리오름 (큰지그리)","Spot_Addr":"제주특별자치도 제주시 조천읍 남조로 2023","Spot_Score":5,"Spot_Views":2912,"Spot_Time":"2022-08-11","Spot_Field":"조천읍","Position":{"lat":33.44545233,"lon":126.6440068}}
{"Spot_Name":"와흘본향당","Spot_Addr":"제주특별자치도 제주시 조천읍 와흘리 1274-1","Spot_Score":5,"Spot_Views":3150,"Spot_Time":"2022-08-11","Spot_Field":"조천읍","Position":{"lat":33.50232,"lon":126.63907}}
{"Spot_Name":"밝은오름 (명월오름)","Spot_Addr":"제주특별자치도 제주시 한림읍 명월로","Spot_Score":0,"Spot_Views":1395,"Spot_Time":"2022-08-11","Spot_Field":"한림읍","Position":{"lat":33.38058,"lon":126.27269}}
{"Spot_Name":"제주동백수목원","Spot_Addr":"제주특별자치도 서귀포시 남원읍 위미중앙로300번길 15","Spot_Score":5,"Spot_Views":50458,"Spot_Time":"2022-08-11","Spot_Field":"남원읍","Position":{"lat":33.272907,"lon":126.67505}}
{"Spot_Name":"걸매생태공원","Spot_Addr":"제주특별자치도 서귀포시 남성로 (서홍동)","Spot_Score":5,"Spot_Views":13161,"Spot_Time":"2022-08-11","Spot_Field":"남성로","Position":{"lat":33.252052,"lon":126.554306}}
{"Spot_Name":"제주교육박물관","Spot_Addr":"제주특별자치도 제주시 오복 4길 25","Spot_Score":0,"Spot_Views":5520,"Spot_Time":"2022-08-11","Spot_Field":"오복","Position":{"lat":33.49451,"lon":126.53802}}
{"Spot_Name":"독자봉","Spot_Addr":"제주특별자치도 서귀포시 성산읍 신산리 1785","Spot_Score":0,"Spot_Views":2359,"Spot_Time":"2022-08-11","Spot_Field":"성산읍","Position":{"lat":33.3877114,"lon":126.8541774}}
{"Spot_Name":"간세공방","Spot_Addr":"제주특별자치도 서귀포시 중정로 22","Spot_Score":0,"Spot_Views":6547,"Spot_Time":"2022-08-11","Spot_Field":"중정로","Position":{"lat":33.247406,"lon":126.55873}}
{"Spot_Name":"돌미오름","Spot_Addr":"제주특별자치도 서귀포시 성산읍 수산리 4393-2","Spot_Score":0,"Spot_Views":1181,"Spot_Time":"2022-08-11","Spot_Field":"성산읍","Position":{"lat":33.43826,"lon":126.82947}}
{"Spot_Name":"추자연도교","Spot_Addr":"제주특별자치도 제주시 추자면 영흥리 97-3","Spot_Score":0,"Spot_Views":1620,"Spot_Time":"2022-08-11","Spot_Field":"추자면","Position":{"lat":33.95409,"lon":126.3023}}
{"Spot_Name":"동백동산","Spot_Addr":"제주특별자치도 제주시 조천읍 선흘리 산 12","Spot_Score":4,"Spot_Views":49435,"Spot_Time":"2022-08-11","Spot_Field":"조천읍","Position":{"lat":33.51234966,"lon":126.7072644}}
{"Spot_Name":"제주목관아","Spot_Addr":"제주특별자치도 제주시 관덕로 25","Spot_Score":5,"Spot_Views":29163,"Spot_Time":"2022-08-11","Spot_Field":"관덕로","Position":{"lat":33.514103,"lon":126.52193}}
{"Spot_Name":"드라마월드","Spot_Addr":"제주특별자치도 제주시 애월읍 화전길 3","Spot_Score":4,"Spot_Views":31535,"Spot_Time":"2022-08-11","Spot_Field":"애월읍","Position":{"lat":33.352234,"lon":126.36064}}
{"Spot_Name":"제주 삼양동 유적","Spot_Addr":"제주특별자치도 제주시 선사로2길 13 (삼양일동)","Spot_Score":5,"Spot_Views":7697,"Spot_Time":"2022-08-11","Spot_Field":"선사로2길","Position":{"lat":33.523994,"lon":126.58665}}
{"Spot_Name":"동검은이오름(거미오름)","Spot_Addr":"제주특별자치도 제주시 구좌읍 종달리 산 70","Spot_Score":5,"Spot_Views":3625,"Spot_Time":"2022-08-11","Spot_Field":"구좌읍","Position":{"lat":33.44907,"lon":126.80516}}
{"Spot_Name":"다랑쉬오름(월랑봉)","Spot_Addr":"제주특별자치도 제주시 구좌읍 구좌로 109-8","Spot_Score":5,"Spot_Views":49817,"Spot_Time":"2022-08-11","Spot_Field":"구좌읍","Position":{"lat":33.4766607,"lon":126.8214352}}
{"Spot_Name":"장생의 숲길","Spot_Addr":"제주특별자치도 제주시 명림로 584","Spot_Score":0,"Spot_Views":9283,"Spot_Time":"2022-08-11","Spot_Field":"명림로","Position":{"lat":33.439373,"lon":126.62845}}
{"Spot_Name":"종달리전망대","Spot_Addr":"제주특별자치도 제주시 구좌읍 해맞이해안로 2196","Spot_Score":5,"Spot_Views":6992,"Spot_Time":"2022-08-11","Spot_Field":"구좌읍","Position":{"lat":33.50375,"lon":126.91271}}
{"Spot_Name":"우도(해양도립공원)","Spot_Addr":"제주특별자치도 제주시 우도면 삼양고수물길 1","Spot_Score":5,"Spot_Views":592600,"Spot_Time":"2022-08-11","Spot_Field":"우도면","Position":{"lat":33.51949,"lon":126.95109}}
{"Spot_Name":"수월봉","Spot_Addr":"제주특별자치도 제주시 한경면 고산리 3760","Spot_Score":5,"Spot_Views":39127,"Spot_Time":"2022-08-11","Spot_Field":"한경면","Position":{"lat":33.294754,"lon":126.16345}}
{"Spot_Name":"군산(군산오름,코메오름)","Spot_Addr":"제주특별자치도 서귀포시 안덕면 창천리 564","Spot_Score":5,"Spot_Views":26956,"Spot_Time":"2022-08-11","Spot_Field":"안덕면","Position":{"lat":33.25584,"lon":126.370255}}
{"Spot_Name":"절부암","Spot_Addr":"제주특별자치도 제주시 한경면 용수3길 22","Spot_Score":4,"Spot_Views":5065,"Spot_Time":"2022-08-11","Spot_Field":"한경면","Position":{"lat":33.3236376,"lon":126.1671318}}
{"Spot_Name":"금능포구","Spot_Addr":"제주특별자치도 제주시 한림읍 금능리","Spot_Score":5,"Spot_Views":2978,"Spot_Time":"2022-08-11","Spot_Field":"한림읍","Position":{"lat":33.359856,"lon":126.24607}}
{"Spot_Name":"산양곶자왈","Spot_Addr":"제주특별자치도제주시 한경면 청수리 956-6","Spot_Score":5,"Spot_Views":6975,"Spot_Time":"2022-08-11","Spot_Field":"한경면","Position":{"lat":33.29201593,"lon":126.2522132}}
{"Spot_Name":"당오름(한경면)","Spot_Addr":"제주특별자치도 제주시 한경면 용수리 산 18","Spot_Score":4,"Spot_Views":4289,"Spot_Time":"2022-08-11","Spot_Field":"한경면","Position":{"lat":33.308254,"lon":126.17365}}
{"Spot_Name":"기독교순례길 4코스(화해의길)","Spot_Addr":"제주특별자치도 서귀포시 대정읍 추사로36번길 11","Spot_Score":0,"Spot_Views":2057,"Spot_Time":"2022-08-11","Spot_Field":"대정읍","Position":{"lat":33.251038,"lon":126.27966}}
{"Spot_Name":"용눈이오름","Spot_Addr":"제주특별자치도 제주시 구좌읍 종달논길","Spot_Score":5,"Spot_Views":90811,"Spot_Time":"2022-08-11","Spot_Field":"구좌읍","Position":{"lat":33.45993,"lon":126.831635}}
{"Spot_Name":"용담레포츠공원","Spot_Addr":"제주특별자치도 제주시 서해안로 580","Spot_Score":5,"Spot_Views":11563,"Spot_Time":"2022-08-11","Spot_Field":"서해안로","Position":{"lat":33.517963,"lon":126.49961}}
{"Spot_Name":"제주추사관","Spot_Addr":"제주특별자치도 서귀포시 대정읍 추사로 44","Spot_Score":5,"Spot_Views":12690,"Spot_Time":"2022-08-11","Spot_Field":"대정읍","Position":{"lat":33.25022,"lon":126.27838}}
{"Spot_Name":"제주종합경기장","Spot_Addr":"제주특별자치도 제주시 서광로2길 24","Spot_Score":5,"Spot_Views":3062,"Spot_Time":"2022-08-11","Spot_Field":"서광로2길","Position":{"lat":33.4975278,"lon":126.5146745}}
{"Spot_Name":"제주항일기념관","Spot_Addr":"제주특별자치도 제주시 조천읍 신북로 303","Spot_Score":5,"Spot_Views":6160,"Spot_Time":"2022-08-11","Spot_Field":"조천읍","Position":{"lat":33.5415236,"lon":126.6425739}}
{"Spot_Name":"함덕백사장 & 서우봉","Spot_Addr":"제주특별자치도 제주시 조천읍 조함해안로 519-10","Spot_Score":5,"Spot_Views":4613,"Spot_Time":"2022-08-11","Spot_Field":"조천읍","Position":{"lat":33.54379,"lon":126.668846}}
{"Spot_Name":"황우럭만화천국사회적협동조합","Spot_Addr":"제주특별자치도 제주시 한림읍 내동남길 7-3","Spot_Score":0,"Spot_Views":1937,"Spot_Time":"2022-08-11","Spot_Field":"한림읍","Position":{"lat":33.41427,"lon":126.26667}}
{"Spot_Name":"탑동","Spot_Addr":"제주특별자치도 제주시 중앙로 2","Spot_Score":5,"Spot_Views":18618,"Spot_Time":"2022-08-11","Spot_Field":"중앙로","Position":{"lat":33.518116,"lon":126.5241853}}
{"Spot_Name":"김녕해수욕장","Spot_Addr":"제주특별자치도 제주시 구좌읍 구좌해안로 237","Spot_Score":5,"Spot_Views":92296,"Spot_Time":"2022-08-11","Spot_Field":"구좌읍","Position":{"lat":33.557926,"lon":126.75998}}
{"Spot_Name":"월평포구","Spot_Addr":"제주특별자치도 서귀포시 말질로 462","Spot_Score":5,"Spot_Views":4321,"Spot_Time":"2022-08-11","Spot_Field":"말질로","Position":{"lat":33.2346522,"lon":126.4647889}}
{"Spot_Name":"금덕무환자나무및팽나무군락","Spot_Addr":"제주특별자치도 제주시 애월읍 유수암리 1920","Spot_Score":0,"Spot_Views":2687,"Spot_Time":"2022-08-11","Spot_Field":"애월읍","Position":{"lat":33.441765,"lon":126.40065}}
{"Spot_Name":"월정리해안도로","Spot_Addr":"제주특별자치도 제주시 구좌읍 월정리 652-4","Spot_Score":5,"Spot_Views":3010,"Spot_Time":"2022-08-11","Spot_Field":"구좌읍","Position":{"lat":33.556572,"lon":126.79497}}
{"Spot_Name":"제주 더팔팔농장","Spot_Addr":"제주특별자치도 서귀포시 성산읍 독자봉로60번길 20","Spot_Score":0,"Spot_Views":6381,"Spot_Time":"2022-08-11","Spot_Field":"성산읍","Position":{"lat":33.38571,"lon":126.871056}}
{"Spot_Name":"대천이오름","Spot_Addr":"제주특별자치도 제주시 조천읍 선흘리 산 154","Spot_Score":0,"Spot_Views":1388,"Spot_Time":"2022-08-11","Spot_Field":"조천읍","Position":{"lat":33.4777041,"lon":126.7135515}}
{"Spot_Name":"비치미오름","Spot_Addr":"제주특별자치도 제주시 구좌읍 송당리 산 255-1","Spot_Score":5,"Spot_Views":2406,"Spot_Time":"2022-08-11","Spot_Field":"구좌읍","Position":{"lat":33.428295,"lon":126.764145}}
{"Spot_Name":"왈종미술관","Spot_Addr":"제주특별자치도 서귀포시 칠십리로214번길 30","Spot_Score":5,"Spot_Views":5897,"Spot_Time":"2022-08-11","Spot_Field":"칠십리로214번길","Position":{"lat":33.245224,"lon":126.5739}}
{"Spot_Name":"문섬(서귀포해양도립공원)","Spot_Addr":"제주특별자치도 서귀포시 칠십리로","Spot_Score":5,"Spot_Views":9269,"Spot_Time":"2022-08-11","Spot_Field":"칠십리로","Position":{"lat":33.226475,"lon":126.565994}}
{"Spot_Name":"이레다원캠핑장","Spot_Addr":"제주특별자치도 제주시 조천읍 대와상길 104-42","Spot_Score":0,"Spot_Views":924,"Spot_Time":"2022-08-11","Spot_Field":"조천읍","Position":{"lat":33.498444,"lon":126.641495}}
{"Spot_Name":"제주국제공항","Spot_Addr":"제주특별자치도 제주시 공항로 2","Spot_Score":4,"Spot_Views":10864,"Spot_Time":"2022-08-11","Spot_Field":"공항로","Position":{"lat":33.5063344,"lon":126.4952613}}
{"Spot_Name":"마복이오름","Spot_Addr":"제주특별자치도 서귀포시 안덕면 상천리 산 83","Spot_Score":0,"Spot_Views":1132,"Spot_Time":"2022-08-11","Spot_Field":"안덕면","Position":{"lat":33.31959747,"lon":126.3951961}}
{"Spot_Name":"우도부릉부릉레져","Spot_Addr":"제주특별자치도 제주시 우도면 우도해안길 128","Spot_Score":5,"Spot_Views":2639,"Spot_Time":"2022-08-11","Spot_Field":"우도면","Position":{"lat":33.49425,"lon":126.9468}}
{"Spot_Name":"애월연대","Spot_Addr":"제주특별자치도 제주시 애월읍 애월리 1975","Spot_Score":0,"Spot_Views":2522,"Spot_Time":"2022-08-11","Spot_Field":"애월읍","Position":{"lat":33.46564,"lon":126.31318}}
{"Spot_Name":"골머리 (洞山, 笏頭岳, 아흔아홉골)","Spot_Addr":"제주특별자치도 제주시 1100로 2528-171","Spot_Score":0,"Spot_Views":1709,"Spot_Time":"2022-08-11","Spot_Field":"1100로","Position":{"lat":33.508095,"lon":126.468593}}
{"Spot_Name":"중문컨트리클럽","Spot_Addr":"제주특별자치도 서귀포시 중문관광로72번길 60","Spot_Score":0,"Spot_Views":2963,"Spot_Time":"2022-08-11","Spot_Field":"중문관광로72번길","Position":{"lat":33.2499853,"lon":126.4061879}}
{"Spot_Name":"남두연대","Spot_Addr":"제주특별자치도 제주시 애월읍 신엄리 2780-1","Spot_Score":0,"Spot_Views":2266,"Spot_Time":"2022-08-11","Spot_Field":"애월읍","Position":{"lat":33.479195,"lon":126.35852}}
{"Spot_Name":"천아오름(낭오름,天娥岳)","Spot_Addr":"제주특별자치도 제주시 애월읍 산록서로 678-207","Spot_Score":3,"Spot_Views":3720,"Spot_Time":"2022-08-11","Spot_Field":"애월읍","Position":{"lat":33.39625976,"lon":126.4888362}}
{"Spot_Name":"더마카트","Spot_Addr":"제주특별자치도 제주시 한림읍 월림7길 155","Spot_Score":0,"Spot_Views":10629,"Spot_Time":"2022-08-11","Spot_Field":"한림읍","Position":{"lat":33.355522,"lon":126.24203}}
{"Spot_Name":"한라승마장","Spot_Addr":"제주특별자치도 서귀포시 안덕면 평화로 1078","Spot_Score":0,"Spot_Views":3599,"Spot_Time":"2022-08-11","Spot_Field":"안덕면","Position":{"lat":33.323906,"lon":126.35258}}
{"Spot_Name":"중문관광단지","Spot_Addr":"제주특별자치도 서귀포시 중문관광로72번길 35","Spot_Score":4,"Spot_Views":58571,"Spot_Time":"2022-08-11","Spot_Field":"중문관광로72번길","Position":{"lat":33.248535,"lon":126.41039}}
{"Spot_Name":"서귀포층패류화석산지","Spot_Addr":"제주특별자치도 서귀포시 남성중로 43","Spot_Score":0,"Spot_Views":5647,"Spot_Time":"2022-08-11","Spot_Field":"남성중로","Position":{"lat":33.23962511,"lon":126.5579874}}
{"Spot_Name":"김만덕기념관","Spot_Addr":"제주특별자치도 제주시 산지로 7","Spot_Score":4,"Spot_Views":7359,"Spot_Time":"2022-08-11","Spot_Field":"산지로","Position":{"lat":33.5157,"lon":126.53032}}
{"Spot_Name":"물메 (물미, 수산봉)","Spot_Addr":"제주특별자치도 제주시 애월읍 수산리 산 1-1","Spot_Score":0,"Spot_Views":5164,"Spot_Time":"2022-08-11","Spot_Field":"애월읍","Position":{"lat":33.4737592,"lon":126.3846826}}
{"Spot_Name":"밝은오름","Spot_Addr":"제주특별자치도 제주시 한림읍 금악동길 200-36","Spot_Score":0,"Spot_Views":2014,"Spot_Time":"2022-08-11","Spot_Field":"한림읍","Position":{"lat":33.35184698,"lon":126.3145414}}
{"Spot_Name":"낙천리아홉굿의자마을","Spot_Addr":"제주시 한경면 낙수로 97","Spot_Score":5,"Spot_Views":11007,"Spot_Time":"2022-08-11","Spot_Field":"한경면","Position":{"lat":33.32757,"lon":126.22681}}
{"Spot_Name":"신비의도로카트체험장","Spot_Addr":"제주특별자치도 제주시 노형동 187-3","Spot_Score":5,"Spot_Views":38162,"Spot_Time":"2022-08-11","Spot_Field":"노형동","Position":{"lat":33.461826,"lon":126.48475}}
{"Spot_Name":"지그리오름","Spot_Addr":"제주특별자치도 제주시 조천읍 교래리 산 137-1","Spot_Score":0,"Spot_Views":1995,"Spot_Time":"2022-08-11","Spot_Field":"조천읍","Position":{"lat":33.42250344,"lon":126.6295714}}
{"Spot_Name":"서귀다원","Spot_Addr":"제주특별자치도 서귀포시 상효동 산 118","Spot_Score":5,"Spot_Views":6029,"Spot_Time":"2022-08-11","Spot_Field":"상효동","Position":{"lat":33.312805,"lon":126.596466}}
{"Spot_Name":"김영수도서관","Spot_Addr":"제주특별자치도 제주시 중앙로8길 18","Spot_Score":0,"Spot_Views":2127,"Spot_Time":"2022-08-11","Spot_Field":"중앙로8길","Position":{"lat":33.5149598,"lon":126.5217042}}
{"Spot_Name":"애월환해장성","Spot_Addr":"제주특별자치도 제주시 애월읍 애월로3길 60","Spot_Score":0,"Spot_Views":3704,"Spot_Time":"2022-08-11","Spot_Field":"애월읍","Position":{"lat":33.4683273,"lon":126.3130121}}
{"Spot_Name":"로봇스퀘어[운영중단]","Spot_Addr":"제주특별자치도 제주시 구좌읍 해맞이해안로 1032","Spot_Score":4,"Spot_Views":14834,"Spot_Time":"2022-08-11","Spot_Field":"구좌읍","Position":{"lat":33.539986,"lon":126.83099}}
{"Spot_Name":"테우마을 수원리 농어촌체험마을","Spot_Addr":"제주시 한림읍 한림해안로 274","Spot_Score":0,"Spot_Views":2955,"Spot_Time":"2022-08-11","Spot_Field":"한림읍","Position":{"lat":33.42559,"lon":126.264656}}
{"Spot_Name":"용담/용두암 해안도로","Spot_Addr":"제주특별자치도 제주시 서해안로 687-8","Spot_Score":5,"Spot_Views":14957,"Spot_Time":"2022-08-11","Spot_Field":"서해안로","Position":{"lat":33.51556,"lon":126.51218}}
{"Spot_Name":"제주워터월드","Spot_Addr":"제주특별자치도 서귀포시 월드컵로 33","Spot_Score":5,"Spot_Views":4741,"Spot_Time":"2022-08-11","Spot_Field":"월드컵로","Position":{"lat":33.2472388,"lon":126.5092079}}
{"Spot_Name":"외돌개","Spot_Addr":"제주특별자치도 서귀포시 서홍동 791","Spot_Score":5,"Spot_Views":62461,"Spot_Time":"2022-08-11","Spot_Field":"서홍동","Position":{"lat":33.240063,"lon":126.54573}}
{"Spot_Name":"교래자연휴양림","Spot_Addr":"제주특별자치도 제주시 조천읍 남조로 2023","Spot_Score":5,"Spot_Views":15163,"Spot_Time":"2022-08-11","Spot_Field":"조천읍","Position":{"lat":33.436817,"lon":126.66685}}
{"Spot_Name":"미악산 (오름, 쌀오름, 솔오름)","Spot_Addr":"제주특별자치도 서귀포시 인정오름로 387-63","Spot_Score":5,"Spot_Views":3814,"Spot_Time":"2022-08-11","Spot_Field":"인정오름로","Position":{"lat":33.30508705,"lon":126.5171503}}
{"Spot_Name":"갯깍주상절리","Spot_Addr":"제주특별자치도 서귀포시 예래해안로 357","Spot_Score":5,"Spot_Views":14483,"Spot_Time":"2022-08-11","Spot_Field":"예래해안로","Position":{"lat":33.2409655,"lon":126.3958822}}
{"Spot_Name":"밧돌오름","Spot_Addr":"제주특별자치도 제주시 구좌읍 송당리","Spot_Score":5,"Spot_Views":2420,"Spot_Time":"2022-08-11","Spot_Field":"구좌읍","Position":{"lat":33.46019192,"lon":126.760904}}
{"Spot_Name":"북오름","Spot_Addr":"제주특별자치도 서귀포시 안덕면 동광리 산 94","Spot_Score":4,"Spot_Views":2169,"Spot_Time":"2022-08-11","Spot_Field":"안덕면","Position":{"lat":33.306194,"lon":126.332054}}
{"Spot_Name":"브릭캠퍼스","Spot_Addr":"제주특별자치도 제주시 1100로 3047","Spot_Score":5,"Spot_Views":32892,"Spot_Time":"2022-08-11","Spot_Field":"1100로","Position":{"lat":33.45853572,"lon":126.4852027}}
{"Spot_Name":"초원승마장","Spot_Addr":"제주특별자치도 서귀포시 상예로 349","Spot_Score":0,"Spot_Views":2503,"Spot_Time":"2022-08-11","Spot_Field":"상예로","Position":{"lat":33.275185,"lon":126.39715}}
{"Spot_Name":"초콜릿랜드","Spot_Addr":"제주특별자치도 서귀포시 중문관광로110번길 15","Spot_Score":4,"Spot_Views":17875,"Spot_Time":"2022-08-11","Spot_Field":"중문관광로110번길","Position":{"lat":33.249115,"lon":126.41363}}
{"Spot_Name":"알밤(알바매기, 알밤오름)","Spot_Addr":"제주특별자치도 제주시 조천읍 선흘남4길 229","Spot_Score":0,"Spot_Views":3424,"Spot_Time":"2022-08-11","Spot_Field":"조천읍","Position":{"lat":33.4777041,"lon":126.7135515}}
{"Spot_Name":"성산·오조 지질트레일","Spot_Addr":"제주특별자치도 서귀포시 성산읍 오조로 30","Spot_Score":5,"Spot_Views":20849,"Spot_Time":"2022-08-11","Spot_Field":"성산읍","Position":{"lat":33.456703,"lon":126.914986}}
{"Spot_Name":"답다니탑망대","Spot_Addr":"제주특별자치도 제주시 우도면 연평리 798","Spot_Score":5,"Spot_Views":3967,"Spot_Time":"2022-08-11","Spot_Field":"우도면","Position":{"lat":33.524593,"lon":126.952644}}
{"Spot_Name":"검멀레동굴","Spot_Addr":"제주특별자치도 제주시 우도면","Spot_Score":4,"Spot_Views":6504,"Spot_Time":"2022-08-11","Spot_Field":"우도면","Position":{"lat":33.49634,"lon":126.96676}}
{"Spot_Name":"가새기오름","Spot_Addr":"제주특별자치도 제주시 오라3동 2848","Spot_Score":5,"Spot_Views":1823,"Spot_Time":"2022-08-11","Spot_Field":"오라3동","Position":{"lat":33.48929,"lon":126.503555}}
{"Spot_Name":"연대포구","Spot_Addr":"제주특별자치도 제주시 외도2동","Spot_Score":0,"Spot_Views":1637,"Spot_Time":"2022-08-11","Spot_Field":"외도2동","Position":{"lat":33.49362,"lon":126.43473}}
{"Spot_Name":"노꼬메족은오름 (小鹿古山)","Spot_Addr":"제주특별자치도 제주시 애월읍 유수암리 산 138","Spot_Score":5,"Spot_Views":2180,"Spot_Time":"2022-08-11","Spot_Field":"애월읍","Position":{"lat":33.394047,"lon":126.417694}}
{"Spot_Name":"제주특별자치도 도립미술관","Spot_Addr":"제주특별자치도 제주시 1100로 2894-78","Spot_Score":5,"Spot_Views":31868,"Spot_Time":"2022-08-11","Spot_Field":"1100로","Position":{"lat":33.45921,"lon":126.48759}}
{"Spot_Name":"갓전시관[임시휴관중]","Spot_Addr":"제주특별자치도 제주시 조천읍 남조로 1904","Spot_Score":0,"Spot_Views":6037,"Spot_Time":"2022-08-11","Spot_Field":"조천읍","Position":{"lat":33.436024,"lon":126.671844}}
{"Spot_Name":"그린크루즈(산방산유람선)","Spot_Addr":"제주특별자치도 서귀포시 안덕면 화순해안로106번길 16","Spot_Score":5,"Spot_Views":12625,"Spot_Time":"2022-08-11","Spot_Field":"안덕면","Position":{"lat":33.236904,"lon":126.33513}}
{"Spot_Name":"조랑말체험공원","Spot_Addr":"제주특별자치도 서귀포시 표선면 녹산로 381-15","Spot_Score":5,"Spot_Views":19185,"Spot_Time":"2022-08-11","Spot_Field":"표선면","Position":{"lat":33.3831271,"lon":126.7362573}}
{"Spot_Name":"조은승마장","Spot_Addr":"제주특별자치도 서귀포시 안덕면 동광로 265-14","Spot_Score":0,"Spot_Views":18301,"Spot_Time":"2022-08-11","Spot_Field":"안덕면","Position":{"lat":33.318214,"lon":126.344894}}
{"Spot_Name":"중문단지 축구장","Spot_Addr":"제주특별자치도 서귀포시 이어도로 120","Spot_Score":0,"Spot_Views":1549,"Spot_Time":"2022-08-11","Spot_Field":"이어도로","Position":{"lat":33.2435151,"lon":126.4352216}}
{"Spot_Name":"삼성혈","Spot_Addr":"제주특별자치도 제주시 삼성로 22","Spot_Score":5,"Spot_Views":17837,"Spot_Time":"2022-08-11","Spot_Field":"삼성로","Position":{"lat":33.504166,"lon":126.5288}}
{"Spot_Name":"우도산호해변 홍조단괴 서빈백사","Spot_Addr":"제주특별자치도 제주시 우도면 우도해안길 252","Spot_Score":5,"Spot_Views":29572,"Spot_Time":"2022-08-11","Spot_Field":"우도면","Position":{"lat":33.50230479,"lon":126.9432341}}
{"Spot_Name":"어승생","Spot_Addr":"제주특별자치도 제주시 해안동 1100도로 555번지 (해안동 산220-12번지)","Spot_Score":5,"Spot_Views":29588,"Spot_Time":"2022-08-11","Spot_Field":"해안동","Position":{"lat":33.397373,"lon":126.49035}}
{"Spot_Name":"연화못","Spot_Addr":"제주특별자치도 제주시 애월읍 고하상로","Spot_Score":4,"Spot_Views":16891,"Spot_Time":"2022-08-11","Spot_Field":"애월읍","Position":{"lat":33.446693,"lon":126.35397}}
{"Spot_Name":"약천사","Spot_Addr":"제주특별자치도 서귀포시 이어도로 293-28","Spot_Score":5,"Spot_Views":32118,"Spot_Time":"2022-08-11","Spot_Field":"이어도로","Position":{"lat":33.245766,"lon":126.44933}}
{"Spot_Name":"쇠소깍","Spot_Addr":"제주특별자치도 서귀포시 쇠소깍로 128","Spot_Score":4,"Spot_Views":137059,"Spot_Time":"2022-08-11","Spot_Field":"쇠소깍로","Position":{"lat":33.2522055,"lon":126.6231188}}
{"Spot_Name":"제주올레 6코스","Spot_Addr":"제주특별자치도 서귀포시 보목동 1377-4","Spot_Score":5,"Spot_Views":16774,"Spot_Time":"2022-08-11","Spot_Field":"보목동","Position":{"lat":33.23712,"lon":126.59607}}
{"Spot_Name":"제주올레 7코스","Spot_Addr":"제주특별자치도 서귀포시 서홍동 795-1","Spot_Score":4,"Spot_Views":28522,"Spot_Time":"2022-08-11","Spot_Field":"서홍동","Position":{"lat":33.240437,"lon":126.548225}}
{"Spot_Name":"세미오름(샘이오름)","Spot_Addr":"제주특별자치도 제주시 조천읍 대흘리 산 27-8","Spot_Score":0,"Spot_Views":2781,"Spot_Time":"2022-08-11","Spot_Field":"조천읍","Position":{"lat":33.473663,"lon":126.66965}}
{"Spot_Name":"제주올레 9코스","Spot_Addr":"제주특별자치도 서귀포시 안덕면 감산리 982-2","Spot_Score":5,"Spot_Views":5277,"Spot_Time":"2022-08-11","Spot_Field":"안덕면","Position":{"lat":33.2371,"lon":126.36139}}
{"Spot_Name":"제주국제컨벤션센터 icc","Spot_Addr":"제주특별자치도 서귀포시 중문관광로 224","Spot_Score":5,"Spot_Views":12565,"Spot_Time":"2022-08-11","Spot_Field":"중문관광로","Position":{"lat":33.241364,"lon":126.424515}}
{"Spot_Name":"제주돌문화공원","Spot_Addr":"제주특별자치도 제주시 조천읍 남조로 2023","Spot_Score":5,"Spot_Views":43510,"Spot_Time":"2022-08-11","Spot_Field":"조천읍","Position":{"lat":33.4087482,"lon":126.635052}}
{"Spot_Name":"무릉곶자왈","Spot_Addr":"제주특별자치도 서귀포시 대정읍 무릉리 산 1","Spot_Score":5,"Spot_Views":5856,"Spot_Time":"2022-08-11","Spot_Field":"대정읍","Position":{"lat":33.291157,"lon":126.26312}}
{"Spot_Name":"제주대학교병원","Spot_Addr":"제주특별자치도 제주시 아란13길 15","Spot_Score":0,"Spot_Views":2584,"Spot_Time":"2022-08-11","Spot_Field":"아란13길","Position":{"lat":33.467101,"lon":126.545309}}
{"Spot_Name":"김영갑갤러리 두모악","Spot_Addr":"제주특별자치도 서귀포시 성산읍 삼달로 137","Spot_Score":5,"Spot_Views":25443,"Spot_Time":"2022-08-11","Spot_Field":"성산읍","Position":{"lat":33.372063,"lon":126.85418}}
{"Spot_Name":"THE WE","Spot_Addr":"제주특별자치도 서귀포시 1100로 453-95","Spot_Score":0,"Spot_Views":1451,"Spot_Time":"2022-08-11","Spot_Field":"1100로","Position":{"lat":33.2862186,"lon":126.4442655}}
{"Spot_Name":"제주 패러글라이딩 스쿨","Spot_Addr":"제주특별자치도 제주시 신선길 17-6, 일도주택3층(일도2동)","Spot_Score":0,"Spot_Views":11533,"Spot_Time":"2022-08-11","Spot_Field":"신선길","Position":{"lat":33.510384,"lon":126.53031}}
{"Spot_Name":"신양섭지해수욕장","Spot_Addr":"제주특별자치도 서귀포시 성산읍 섭지코지로 107","Spot_Score":5,"Spot_Views":15195,"Spot_Time":"2022-08-11","Spot_Field":"성산읍","Position":{"lat":33.4349312,"lon":126.9231116}}
{"Spot_Name":"조천만세동산","Spot_Addr":"제주특별자치도 제주시 조천읍 조천리 1133-2","Spot_Score":0,"Spot_Views":4685,"Spot_Time":"2022-08-11","Spot_Field":"조천읍","Position":{"lat":33.53997,"lon":126.64167}}
{"Spot_Name":"중문골프장","Spot_Addr":"제주특별자치도 서귀포시 중문관광로72번길 60 (색달동)","Spot_Score":5,"Spot_Views":2632,"Spot_Time":"2022-08-11","Spot_Field":"중문관광로72번길","Position":{"lat":33.252026,"lon":126.40774}}
{"Spot_Name":"(주)제주해양레저 투명카약","Spot_Addr":"제주특별자치도 제주시 애월읍 애월로1길 22","Spot_Score":0,"Spot_Views":7543,"Spot_Time":"2022-08-11","Spot_Field":"애월읍","Position":{"lat":33.462353,"lon":126.31049}}
{"Spot_Name":"단산(바굼지오름)","Spot_Addr":"제주특별자치도 서귀포시 안덕면 향교로 165-23","Spot_Score":5,"Spot_Views":8423,"Spot_Time":"2022-08-11","Spot_Field":"안덕면","Position":{"lat":33.2399744,"lon":126.2891838}}
{"Spot_Name":"알프스승마장포니","Spot_Addr":"제주특별자치도 서귀포시 표선면 서성일로 73","Spot_Score":3,"Spot_Views":5925,"Spot_Time":"2022-08-11","Spot_Field":"표선면","Position":{"lat":33.4112985,"lon":126.7819256}}
{"Spot_Name":"조천중학원 옛터","Spot_Addr":"제주특별자치도 제주시 조천읍 신북로 264","Spot_Score":0,"Spot_Views":1047,"Spot_Time":"2022-08-11","Spot_Field":"조천읍","Position":{"lat":33.538307,"lon":126.640305}}
{"Spot_Name":"만벵듸 공동장지","Spot_Addr":"제주특별자치도 제주시 한림읍 갯거리오름길 114","Spot_Score":0,"Spot_Views":982,"Spot_Time":"2022-08-11","Spot_Field":"한림읍","Position":{"lat":33.372234,"lon":126.2959}}
{"Spot_Name":"박물관은 살아있다","Spot_Addr":"제주특별자치도 서귀포시 중문관광로 42","Spot_Score":5,"Spot_Views":54489,"Spot_Time":"2022-08-11","Spot_Field":"중문관광로","Position":{"lat":33.255043,"lon":126.409065}}
{"Spot_Name":"페인터즈:히어로 제주","Spot_Addr":"제주특별자치도 제주시 한라대학로 38 제주한라대학교 한라아트홀 2층","Spot_Score":0,"Spot_Views":4804,"Spot_Time":"2022-08-11","Spot_Field":"한라대학로","Position":{"lat":33.47634,"lon":126.47637}}
{"Spot_Name":"넥슨컴퓨터박물관","Spot_Addr":"제주특별자치도 제주시 1100로 3198-8","Spot_Score":4,"Spot_Views":26549,"Spot_Time":"2022-08-11","Spot_Field":"1100로","Position":{"lat":33.4862871,"lon":126.428576}}
{"Spot_Name":"제주러브랜드","Spot_Addr":"제주특별자치도 제주시 1100로 2894-72","Spot_Score":4,"Spot_Views":44606,"Spot_Time":"2022-08-11","Spot_Field":"1100로","Position":{"lat":33.4519922,"lon":126.4890053}}
{"Spot_Name":"오조포구","Spot_Addr":"제주특별자치도 서귀포시 성산읍 오조리","Spot_Score":5,"Spot_Views":7078,"Spot_Time":"2022-08-11","Spot_Field":"성산읍","Position":{"lat":33.462772,"lon":126.92111}}
{"Spot_Name":"산천단곰솔","Spot_Addr":"제주특별자치도 제주시 516로 3041-24","Spot_Score":5,"Spot_Views":3298,"Spot_Time":"2022-08-11","Spot_Field":"516로","Position":{"lat":33.4474924,"lon":126.5550308}}
{"Spot_Name":"표선도서관","Spot_Addr":"제주특별자치도 서귀포시 표선면 표선백사로110번길 17-10","Spot_Score":0,"Spot_Views":1757,"Spot_Time":"2022-08-11","Spot_Field":"표선면","Position":{"lat":33.3237336,"lon":126.8385628}}
{"Spot_Name":"도두항","Spot_Addr":"제주특별자치도 제주시 도공로 2","Spot_Score":5,"Spot_Views":5224,"Spot_Time":"2022-08-11","Spot_Field":"도공로","Position":{"lat":33.507725,"lon":126.466576}}
{"Spot_Name":"가뫼물","Spot_Addr":"제주특별자치도 서귀포시 남원읍 남위남성로 168","Spot_Score":5,"Spot_Views":28968,"Spot_Time":"2022-08-11","Spot_Field":"남원읍","Position":{"lat":33.2899733,"lon":126.6935278}}
{"Spot_Name":"반 고흐 인사이드","Spot_Addr":"제주특별자치도 서귀포시 중문관광로 222","Spot_Score":5,"Spot_Views":7799,"Spot_Time":"2022-08-11","Spot_Field":"중문관광로","Position":{"lat":33.241806,"lon":126.422676}}
{"Spot_Name":"수월이못","Spot_Addr":"제주특별자치도 서귀포시 대정읍 안성리 1747","Spot_Score":0,"Spot_Views":2619,"Spot_Time":"2022-08-11","Spot_Field":"대정읍","Position":{"lat":33.258373,"lon":126.27856}}
{"Spot_Name":"걸서악 (동걸세, 걸세오름, 걸시오름)","Spot_Addr":"제주특별자치도 서귀포시 남원읍 하례로 393","Spot_Score":0,"Spot_Views":1421,"Spot_Time":"2022-08-11","Spot_Field":"남원읍","Position":{"lat":33.281223,"lon":126.66428}}
{"Spot_Name":"우도등대","Spot_Addr":"제주특별자치도 제주시 우도면 우도봉길 105","Spot_Score":5,"Spot_Views":9107,"Spot_Time":"2022-08-11","Spot_Field":"우도면","Position":{"lat":33.50332,"lon":126.95568}}
{"Spot_Name":"믿거나말거나박물관 제주","Spot_Addr":"제주특별자치도 서귀포시 중문관광로110번길 32","Spot_Score":4,"Spot_Views":30945,"Spot_Time":"2022-08-11","Spot_Field":"중문관광로110번길","Position":{"lat":33.25108,"lon":126.412766}}
{"Spot_Name":"농업회사법인(주)태반의땅제주","Spot_Addr":"제주특별자치도 서귀포시 토평로50번길 29","Spot_Score":0,"Spot_Views":2435,"Spot_Time":"2022-08-11","Spot_Field":"토평로50번길","Position":{"lat":33.28441,"lon":126.57967}}
{"Spot_Name":"애월한담해안산책로","Spot_Addr":"제주특별자치도 제주시 애월읍 곽지리 1359","Spot_Score":5,"Spot_Views":110391,"Spot_Time":"2022-08-11","Spot_Field":"애월읍","Position":{"lat":33.45906,"lon":126.3106}}
{"Spot_Name":"해품은체험농장","Spot_Addr":"제주특별자치도 서귀포시 성산읍 서성일로 1078-14","Spot_Score":0,"Spot_Views":10776,"Spot_Time":"2022-08-11","Spot_Field":"성산읍","Position":{"lat":33.443462,"lon":126.89263}}
{"Spot_Name":"조천함덕해안도로","Spot_Addr":"제주특별자치도 제주시 조천읍 조천8길 14-1","Spot_Score":5,"Spot_Views":9531,"Spot_Time":"2022-08-11","Spot_Field":"조천읍","Position":{"lat":33.52976,"lon":126.6448}}
{"Spot_Name":"골프탕탕","Spot_Addr":"제주특별자치도 서귀포시 안덕면 산록남로 762번길 71","Spot_Score":0,"Spot_Views":3872,"Spot_Time":"2022-08-11","Spot_Field":"안덕면","Position":{"lat":33.305763,"lon":126.38885}}
{"Spot_Name":"가파도 마라도 정기여객선","Spot_Addr":"제주특별자치도 서귀포시 대정읍 최남단해안로 120","Spot_Score":5,"Spot_Views":2654,"Spot_Time":"2022-08-11","Spot_Field":"대정읍","Position":{"lat":33.2100551,"lon":126.2585746}}
{"Spot_Name":"조천비석거리","Spot_Addr":"제주특별자치도 제주시 조천읍 조천리","Spot_Score":0,"Spot_Views":2906,"Spot_Time":"2022-08-11","Spot_Field":"조천읍","Position":{"lat":33.539413,"lon":126.63747}}
{"Spot_Name":"제주플래티늄카라반","Spot_Addr":"제주시 애월읍 하귀미수포길 5-8","Spot_Score":0,"Spot_Views":5485,"Spot_Time":"2022-08-11","Spot_Field":"애월읍","Position":{"lat":33.48435,"lon":126.40223}}
{"Spot_Name":"우도 비양도","Spot_Addr":"제주특별자치도 제주시 우도면 연평리","Spot_Score":4,"Spot_Views":14649,"Spot_Time":"2022-08-11","Spot_Field":"우도면","Position":{"lat":33.51471144,"lon":126.9674229}}
{"Spot_Name":"두멩이골목","Spot_Addr":"제주특별자치도 제주시 일도2동","Spot_Score":5,"Spot_Views":3573,"Spot_Time":"2022-08-11","Spot_Field":"일도2동","Position":{"lat":33.511513,"lon":126.53836}}
{"Spot_Name":"용두암해안도로카페거리","Spot_Addr":"제주특별자치도 제주시 용담3동","Spot_Score":5,"Spot_Views":8556,"Spot_Time":"2022-08-11","Spot_Field":"용담3동","Position":{"lat":33.519577,"lon":126.492165}}
{"Spot_Name":"금능석물원","Spot_Addr":"제주특별자치도 제주시 한림읍 한림로 176","Spot_Score":4,"Spot_Views":12692,"Spot_Time":"2022-08-11","Spot_Field":"한림읍","Position":{"lat":33.38459,"lon":126.226875}}
{"Spot_Name":"비양도의 비양나무자생지","Spot_Addr":"제주특별자치도 제주시 한림읍 협재리 산 89","Spot_Score":0,"Spot_Views":2726,"Spot_Time":"2022-08-11","Spot_Field":"한림읍","Position":{"lat":33.499622,"lon":126.53119}}
{"Spot_Name":"제주옹기굴제","Spot_Addr":"제주특별자치도 서귀포시 대정읍 무영로254번길 3-1","Spot_Score":0,"Spot_Views":556,"Spot_Time":"2022-08-11","Spot_Field":"대정읍","Position":{"lat":33.2828,"lon":126.22336}}
{"Spot_Name":"시크릿가든촬영지","Spot_Addr":"제주특별자치도 서귀포시 중문관광로 198 (중문동)","Spot_Score":5,"Spot_Views":23274,"Spot_Time":"2022-08-11","Spot_Field":"중문관광로","Position":{"lat":33.242905,"lon":126.42043}}
{"Spot_Name":"서귀포유람선","Spot_Addr":"제주특별자치도 서귀포시 남성중로 40","Spot_Score":4,"Spot_Views":29511,"Spot_Time":"2022-08-11","Spot_Field":"남성중로","Position":{"lat":33.2392231,"lon":126.5586562}}
{"Spot_Name":"자구내포구","Spot_Addr":"제주특별자치도 제주시 한경면 고산리","Spot_Score":5,"Spot_Views":4300,"Spot_Time":"2022-08-11","Spot_Field":"한경면","Position":{"lat":33.309494,"lon":126.164894}}
{"Spot_Name":"거문오름(UNESCO 세계자연유산)","Spot_Addr":"제주특별자치도 제주시 조천읍 선교로 569-36","Spot_Score":4,"Spot_Views":189171,"Spot_Time":"2022-08-11","Spot_Field":"조천읍","Position":{"lat":33.45307315,"lon":126.7235079}}
{"Spot_Name":"걸매축구장","Spot_Score":0,"Spot_Views":325,"Spot_Time":"2022-08-11","Position":{"lat":33.251163,"lon":126.55409}}
{"Spot_Name":"산방산 수국","Spot_Addr":"제주특별자치도 서귀포시 안덕면 산방로","Spot_Score":5,"Spot_Views":3393,"Spot_Time":"2022-08-11","Spot_Field":"안덕면","Position":{"lat":33.238625,"lon":126.31461}}
{"Spot_Name":"성굽길","Spot_Score":0,"Spot_Views":111,"Spot_Time":"2022-08-11","Position":{"lat":33.499622,"lon":126.53119}}
{"Spot_Name":"함덕야영장","Spot_Addr":"제주특별자치도 제주시 조천읍 함덕리 1008","Spot_Score":0,"Spot_Views":4487,"Spot_Time":"2022-08-11","Spot_Field":"조천읍","Position":{"lat":33.544018,"lon":126.66839}}
{"Spot_Name":"건강과성박물관","Spot_Addr":"제주특별자치도 서귀포시 안덕면 일주서로 1611","Spot_Score":4,"Spot_Views":19906,"Spot_Time":"2022-08-11","Spot_Field":"안덕면","Position":{"lat":33.2550314,"lon":126.3452068}}
{"Spot_Name":"제주센트럴파크","Spot_Addr":"제주특별자치도 제주시 조천읍 비자림로 606","Spot_Score":4,"Spot_Views":23110,"Spot_Time":"2022-08-11","Spot_Field":"조천읍","Position":{"lat":33.433598,"lon":126.67473}}
{"Spot_Name":"김녕금속공예벽화마을","Spot_Addr":"제주특별자치도 제주시 구좌읍 김녕항3길 18-16","Spot_Score":4,"Spot_Views":18455,"Spot_Time":"2022-08-11","Spot_Field":"구좌읍","Position":{"lat":33.557953,"lon":126.74662}}
{"Spot_Name":"방주교회","Spot_Addr":"제주특별자치도 서귀포시 안덕면 산록남로762번길 113","Spot_Score":5,"Spot_Views":46356,"Spot_Time":"2022-08-11","Spot_Field":"안덕면","Position":{"lat":33.305073,"lon":126.387665}}
{"Spot_Name":"김경숙해바라기농장","Spot_Addr":"제주특별자치도 제주시 번영로 854-1","Spot_Score":5,"Spot_Views":64213,"Spot_Time":"2022-08-11","Spot_Field":"번영로","Position":{"lat":33.47736,"lon":126.62767}}
{"Spot_Name":"온평리 환해장성","Spot_Addr":"제주특별자치도 서귀포시 성산읍 환해장성로 732","Spot_Score":0,"Spot_Views":2324,"Spot_Time":"2022-08-11","Spot_Field":"성산읍","Position":{"lat":33.418377,"lon":126.91146}}
{"Spot_Name":"용수항","Spot_Addr":"제주특별자치도 제주시 한경면 용수리","Spot_Score":5,"Spot_Views":2200,"Spot_Time":"2022-08-11","Spot_Field":"한경면","Position":{"lat":33.323494,"lon":126.16516}}
{"Spot_Name":"서부두명품횟집거리(삭제콘텐츠)","Spot_Addr":"제주특별자치도 제주시 건입동","Spot_Score":0,"Spot_Views":294,"Spot_Time":"2022-08-11","Spot_Field":"건입동","Position":{"lat":33.517296,"lon":126.52796}}
{"Spot_Name":"올레여행자센터","Spot_Addr":"제주특별자치도 서귀포시 중정로 22","Spot_Score":3,"Spot_Views":6401,"Spot_Time":"2022-08-11","Spot_Field":"중정로","Position":{"lat":33.247406,"lon":126.55873}}
{"Spot_Name":"코코몽 에코파크","Spot_Addr":"제주특별자치도 서귀포시 남원읍 태위로 536","Spot_Score":5,"Spot_Views":19531,"Spot_Time":"2022-08-11","Spot_Field":"남원읍","Position":{"lat":33.27463,"lon":126.70585}}
{"Spot_Name":"상효원","Spot_Addr":"제주특별자치도 서귀포시 산록남로 2847-37","Spot_Score":5,"Spot_Views":21218,"Spot_Time":"2022-08-11","Spot_Field":"산록남로","Position":{"lat":33.307217,"lon":126.58609}}
{"Spot_Name":"하모씨워킹","Spot_Addr":"제주특별자치도서귀포시대정읍최남단해안로 130","Spot_Score":0,"Spot_Views":9514,"Spot_Time":"2022-08-11","Spot_Field":130,"Position":{"lat":33.207684,"lon":126.2912}}
{"Spot_Name":"동복환해장성","Spot_Addr":"제주특별자치도 제주시 구좌읍 동복리","Spot_Score":0,"Spot_Views":2124,"Spot_Time":"2022-08-11","Spot_Field":"구좌읍","Position":{"lat":33.53544,"lon":126.71806}}
{"Spot_Name":"아라리오뮤지엄탑동시네마","Spot_Addr":"제주특별자치도 제주시 삼도2동 1261-8","Spot_Score":4,"Spot_Views":6317,"Spot_Time":"2022-08-11","Spot_Field":"삼도2동","Position":{"lat":33.51742,"lon":126.52344}}
{"Spot_Name":"장전리 벚꽃축제길","Spot_Addr":"제주특별자치도 제주시 애월읍 광상로 403","Spot_Score":5,"Spot_Views":7813,"Spot_Time":"2022-08-11","Spot_Field":"애월읍","Position":{"lat":33.44326,"lon":126.390686}}
{"Spot_Name":"성읍마을","Spot_Addr":"제주특별자치도 서귀포시 표선면 성읍정의현로 19","Spot_Score":5,"Spot_Views":55439,"Spot_Time":"2022-08-11","Spot_Field":"표선면","Position":{"lat":33.384453,"lon":126.800385}}
{"Spot_Name":"사려니숲길","Spot_Addr":"제주특별자치도 제주시 조천읍 교래리 산 137-1","Spot_Score":5,"Spot_Views":636746,"Spot_Time":"2022-08-11","Spot_Field":"조천읍","Position":{"lat":33.40845,"lon":126.63976}}
{"Spot_Name":"산방산 랜드","Spot_Addr":"제주특별자치도 서귀포시 안덕면 사계남로216번길 24-32","Spot_Score":0,"Spot_Views":8849,"Spot_Time":"2022-08-11","Spot_Field":"안덕면","Position":{"lat":33.233696,"lon":126.311775}}
{"Spot_Name":"협재해수욕장","Spot_Addr":"제주특별자치도 제주시 한림읍 한림로 329-10","Spot_Score":5,"Spot_Views":221113,"Spot_Time":"2022-08-11","Spot_Field":"한림읍","Position":{"lat":33.393845,"lon":126.239716}}
{"Spot_Name":"남원종합경기장","Spot_Addr":"제주특별자치도 서귀포시 남원읍 태위로 551-27","Spot_Score":5,"Spot_Views":1388,"Spot_Time":"2022-08-11","Spot_Field":"남원읍","Position":{"lat":33.278313,"lon":126.70406}}
{"Spot_Name":"아쿠아플라넷 제주","Spot_Addr":"제주특별자치도 서귀포시 성산읍 섭지코지로 95","Spot_Score":5,"Spot_Views":81156,"Spot_Time":"2022-08-11","Spot_Field":"성산읍","Position":{"lat":33.43237,"lon":126.928215}}
{"Spot_Name":"사라오름","Spot_Addr":"제주특별자치도 서귀포시 남원읍 신례리 산 2-1","Spot_Score":5,"Spot_Views":22410,"Spot_Time":"2022-08-11","Spot_Field":"남원읍","Position":{"lat":33.371944,"lon":126.570915}}
{"Spot_Name":"삼의양오름","Spot_Addr":"제주특별자치도 제주시 아라2동 산 43520","Spot_Score":0,"Spot_Views":819,"Spot_Time":"2022-08-11","Spot_Field":"아라2동","Position":{"lat":33.43981,"lon":126.56199}}
{"Spot_Name":"새섬","Spot_Addr":"제주특별자치도 서귀포시 남성중로 40","Spot_Score":5,"Spot_Views":12222,"Spot_Time":"2022-08-11","Spot_Field":"남성중로","Position":{"lat":33.23647274,"lon":126.5615906}}
{"Spot_Name":"새연교","Spot_Addr":"제주특별자치도 서귀포시 서홍동 707-4","Spot_Score":5,"Spot_Views":46129,"Spot_Time":"2022-08-11","Spot_Field":"서홍동","Position":{"lat":33.238186,"lon":126.55907}}
{"Spot_Name":"탑동해변공연장","Spot_Addr":"제주특별자치도 제주시 중앙로 2","Spot_Score":5,"Spot_Views":7879,"Spot_Time":"2022-08-11","Spot_Field":"중앙로","Position":{"lat":33.518116,"lon":126.5241853}}
{"Spot_Name":"제주하늘을날다(패러글라이딩)","Spot_Addr":"제주특별자치도 제주시 도남로17길 32 영산홍아파트 가동","Spot_Score":4,"Spot_Views":50719,"Spot_Time":"2022-08-11","Spot_Field":"도남로17길","Position":{"lat":33.4910557,"lon":126.5317204}}
{"Spot_Name":"오설록티뮤지엄","Spot_Addr":"제주특별자치도 서귀포시 안덕면 신화역사로 15","Spot_Score":5,"Spot_Views":101225,"Spot_Time":"2022-08-11","Spot_Field":"안덕면","Position":{"lat":33.3063942,"lon":126.2905203}}
{"Spot_Name":"서귀포 궁도장(천지정)","Spot_Addr":"제주특별자치도 서귀포시 중산간서로 97-40","Spot_Score":0,"Spot_Views":6283,"Spot_Time":"2022-08-11","Spot_Field":"중산간서로","Position":{"lat":33.2592301,"lon":126.4980473}}
{"Spot_Name":"제주항공우주박물관","Spot_Addr":"제주특별자치도 서귀포시 안덕면 녹차분재로 218 항곡우주박물관","Spot_Score":5,"Spot_Views":36367,"Spot_Time":"2022-08-11","Spot_Field":"안덕면","Position":{"lat":33.30413,"lon":126.299675}}
{"Spot_Name":"제주향교","Spot_Addr":"제주특별자치도 제주시 서문로 43","Spot_Score":5,"Spot_Views":5511,"Spot_Time":"2022-08-11","Spot_Field":"서문로","Position":{"lat":33.511157,"lon":126.5160507}}
{"Spot_Name":"세화해변","Spot_Addr":"제주특별자치도 제주시 구좌읍 해녀박물관길 27","Spot_Score":5,"Spot_Views":63870,"Spot_Time":"2022-08-11","Spot_Field":"구좌읍","Position":{"lat":33.5253049,"lon":126.861276}}
{"Spot_Name":"큰사슴이오름","Spot_Addr":"제주특별자치도 서귀포시 표선면 중산간동로","Spot_Score":5,"Spot_Views":6200,"Spot_Time":"2022-08-11","Spot_Field":"표선면","Position":{"lat":33.4005,"lon":126.72963}}
{"Spot_Name":"모슬포항","Spot_Addr":"제주특별자치도 서귀포시 대정읍 신영로36번길 48","Spot_Score":5,"Spot_Views":21096,"Spot_Time":"2022-08-11","Spot_Field":"대정읍","Position":{"lat":33.218925,"lon":126.24864}}
{"Spot_Name":"송계순집터","Spot_Addr":"제주특별자치도 서귀포시 대정읍 안성리 1681-1","Spot_Score":0,"Spot_Views":2284,"Spot_Time":"2022-08-11","Spot_Field":"대정읍","Position":{"lat":33.25089,"lon":126.27759}}
{"Spot_Name":"이상한 나라의 앨리스","Spot_Addr":"제주특별자치도 서귀포시 안덕면 중산간서로 1881","Spot_Score":0,"Spot_Views":20374,"Spot_Time":"2022-08-11","Spot_Field":"안덕면","Position":{"lat":33.2889437,"lon":126.3218702}}
{"Spot_Name":"김녕해수욕장야영장","Spot_Addr":"제주특별자치도 제주시 구좌읍 해맞이해안로 7-6","Spot_Score":5,"Spot_Views":6441,"Spot_Time":"2022-08-11","Spot_Field":"구좌읍","Position":{"lat":33.55699,"lon":126.7602}}
{"Spot_Name":"이호테우말등대","Spot_Addr":"제주특별자치도 제주시 서해안로 58","Spot_Score":5,"Spot_Views":67707,"Spot_Time":"2022-08-11","Spot_Field":"서해안로","Position":{"lat":33.5021596,"lon":126.4564505}}
{"Spot_Name":"체오름","Spot_Score":4,"Spot_Views":768,"Spot_Time":"2022-08-11","Position":{"lat":33.464676,"lon":126.75125}}
{"Spot_Name":"비양봉","Spot_Addr":"제주특별자치도 제주시 한림읍 협재리 산 100-1","Spot_Score":5,"Spot_Views":3800,"Spot_Time":"2022-08-11","Spot_Field":"한림읍","Position":{"lat":33.40889812,"lon":126.2261906}}
{"Spot_Name":"에버리스 골프리조트","Spot_Addr":"제주특별자치도 제주시 애월읍 평화로 1693-75","Spot_Score":0,"Spot_Views":2669,"Spot_Time":"2022-08-11","Spot_Field":"애월읍","Position":{"lat":33.37819,"lon":126.36217}}
{"Spot_Name":"거친오름","Spot_Addr":"제주특별자치도 제주시 명림로 520 (봉개동)","Spot_Score":0,"Spot_Views":3183,"Spot_Time":"2022-08-11","Spot_Field":"명림로","Position":{"lat":33.445274,"lon":126.61945}}
{"Spot_Name":"본지오름","Spot_Addr":"제주특별자치도 서귀포시 성산읍 삼달리 2104-1","Spot_Score":0,"Spot_Views":1144,"Spot_Time":"2022-08-11","Spot_Field":"성산읍","Position":{"lat":33.38728,"lon":126.8217}}
{"Spot_Name":"거린오름 (북오름)","Spot_Addr":"제주특별자치도 서귀포시 안덕면 동광리 산 94","Spot_Score":0,"Spot_Views":2593,"Spot_Time":"2022-08-11","Spot_Field":"안덕면","Position":{"lat":33.302387,"lon":126.33193}}
{"Spot_Name":"무악(개오름,오름,무오름)","Spot_Addr":"제주특별자치도 서귀포시 안덕면 동광리 산 12","Spot_Score":0,"Spot_Views":1153,"Spot_Time":"2022-08-11","Spot_Field":"안덕면","Position":{"lat":33.307552,"lon":126.36872}}
{"Spot_Name":"자배봉(자배오름,망오름)","Spot_Addr":"제주특별자치도 서귀포시 남원읍 태위로360번길 18","Spot_Score":5,"Spot_Views":2815,"Spot_Time":"2022-08-11","Spot_Field":"남원읍","Position":{"lat":33.29860149,"lon":126.6771549}}
{"Spot_Name":"월정리 카약체험장","Spot_Addr":"제주특별자치도 제주시 구좌읍 일주동로 2361-2","Spot_Score":5,"Spot_Views":36469,"Spot_Time":"2022-08-11","Spot_Field":"구좌읍","Position":{"lat":33.56346,"lon":126.78025}}
{"Spot_Name":"당산봉(당오름,차귀오름)","Spot_Addr":"제주특별자치도 제주시 한경면 고산리 산 15","Spot_Score":5,"Spot_Views":8108,"Spot_Time":"2022-08-11","Spot_Field":"한경면","Position":{"lat":33.30769668,"lon":126.1726693}}
{"Spot_Name":"발이오름","Spot_Addr":"제주특별자치도 제주시 애월읍 어음리 산 1","Spot_Score":0,"Spot_Views":2101,"Spot_Time":"2022-08-11","Spot_Field":"애월읍","Position":{"lat":33.39587196,"lon":126.3462877}}
{"Spot_Name":"환상숲 곶자왈공원","Spot_Addr":"제주특별자치도 제주시 한경면 녹차분재로 594-1","Spot_Score":4,"Spot_Views":51835,"Spot_Time":"2022-08-11","Spot_Field":"한경면","Position":{"lat":33.322342,"lon":126.26323}}
{"Spot_Name":"아끈다랑쉬","Spot_Addr":"제주특별자치도 제주시 구좌읍 세화리 2593","Spot_Score":5,"Spot_Views":13597,"Spot_Time":"2022-08-11","Spot_Field":"구좌읍","Position":{"lat":33.47431258,"lon":126.8311494}}
{"Spot_Name":"돈두미오름(돈도름,돈대미)","Spot_Addr":"제주특별자치도 서귀포시 대정읍 영락하동로47번길 29","Spot_Score":0,"Spot_Views":1326,"Spot_Time":"2022-08-11","Spot_Field":"대정읍","Position":{"lat":33.2562288,"lon":126.2115638}}
{"Spot_Name":"마린파크","Spot_Addr":"제주특별자치도 서귀포시 안덕면 화순중앙로 132","Spot_Score":5,"Spot_Views":17649,"Spot_Time":"2022-08-11","Spot_Field":"안덕면","Position":{"lat":33.240707,"lon":126.334724}}
{"Spot_Name":"도리미오름","Spot_Addr":"제주특별자치도 제주시 구좌읍 송당리 산 255-1","Spot_Score":0,"Spot_Views":1966,"Spot_Time":"2022-08-11","Spot_Field":"구좌읍","Position":{"lat":33.431633,"lon":126.77203}}
{"Spot_Name":"상추자포구","Spot_Addr":"제주특별자치도 제주시 추자면 대서리","Spot_Score":0,"Spot_Views":1121,"Spot_Time":"2022-08-11","Spot_Field":"추자면","Position":{"lat":33.96429,"lon":126.292984}}
{"Spot_Name":"신대산전망대","Spot_Addr":"제주특별자치도 제주시 추자면 예초리","Spot_Score":0,"Spot_Views":2369,"Spot_Time":"2022-08-11","Spot_Field":"추자면","Position":{"lat":33.954597,"lon":126.34063}}
{"Spot_Name":"동굴의 다원 다희연","Spot_Addr":"제주특별자치도 제주시 조천읍 선교로 266 캐릭파크 내","Spot_Score":5,"Spot_Views":32356,"Spot_Time":"2022-08-11","Spot_Field":"조천읍","Position":{"lat":33.4793016,"lon":126.700604}}
{"Spot_Name":"들리오름 (들위오름)","Spot_Addr":"제주특별자치도 제주시 오등동 158","Spot_Score":0,"Spot_Views":1029,"Spot_Time":"2022-08-11","Spot_Field":"오등동","Position":{"lat":33.42894283,"lon":126.5430631}}
{"Spot_Name":"검은오름","Spot_Addr":"제주특별자치도 제주시 조천읍 선교로 569-36","Spot_Score":3,"Spot_Views":6459,"Spot_Time":"2022-08-11","Spot_Field":"조천읍","Position":{"lat":33.46700052,"lon":126.701149}}
{"Spot_Name":"제주세계자연유산센터","Spot_Addr":"제주특별자치도 제주시 조천읍 선교로 569-36(선흘리 478)","Spot_Score":5,"Spot_Views":14107,"Spot_Time":"2022-08-11","Spot_Field":"조천읍","Position":{"lat":33.500607,"lon":126.65108}}
{"Spot_Name":"맬튼개 갯담","Spot_Addr":"제주특별자치도 제주시 구좌읍 구좌로 142","Spot_Score":5,"Spot_Views":3467,"Spot_Time":"2022-08-11","Spot_Field":"구좌읍","Position":{"lat":33.520626,"lon":126.865746}}
{"Spot_Name":"서커스월드공연장","Spot_Addr":"제주특별자치도 서귀포시 안덕면 동광로 214","Spot_Score":5,"Spot_Views":20444,"Spot_Time":"2022-08-11","Spot_Field":"안덕면","Position":{"lat":33.313927,"lon":126.34488}}
{"Spot_Name":"도두봉","Spot_Addr":"제주특별자치도 제주시 도두동 산 1","Spot_Score":5,"Spot_Views":29106,"Spot_Time":"2022-08-11","Spot_Field":"도두동","Position":{"lat":33.50764,"lon":126.4686}}
{"Spot_Name":"제주바다체험장","Spot_Addr":"제주특별자치도 제주시 구좌읍 동복리 608-3","Spot_Score":4,"Spot_Views":27483,"Spot_Time":"2022-08-11","Spot_Field":"구좌읍","Position":{"lat":33.554684,"lon":126.722336}}
{"Spot_Name":"제주별빛누리공원[제한적운영중]","Spot_Addr":"제주특별자치도 제주시 선돌목동길 60","Spot_Score":4,"Spot_Views":29224,"Spot_Time":"2022-08-11","Spot_Field":"선돌목동길","Position":{"lat":33.4445482,"lon":126.5492536}}
{"Spot_Name":"하고수동해변","Spot_Addr":"제주특별자치도 제주시 우도면 연평리","Spot_Score":5,"Spot_Views":10289,"Spot_Time":"2022-08-11","Spot_Field":"우도면","Position":{"lat":33.514126,"lon":126.958595}}
{"Spot_Name":"붉은오름(성산읍)","Spot_Addr":"제주특별자치도 서귀포시 성산읍 섭지코지로 261","Spot_Score":0,"Spot_Views":4261,"Spot_Time":"2022-08-11","Spot_Field":"성산읍","Position":{"lat":33.42664477,"lon":126.9323537}}
{"Spot_Name":"중문미로파크","Spot_Addr":"제주특별자치도 서귀포시 일주서로 1225-5","Spot_Score":0,"Spot_Views":10714,"Spot_Time":"2022-08-11","Spot_Field":"일주서로","Position":{"lat":33.2631,"lon":126.38159}}
{"Spot_Name":"소암현중화기념관","Spot_Addr":"제주특별자치도 서귀포시 소암로 15","Spot_Score":0,"Spot_Views":4938,"Spot_Time":"2022-08-11","Spot_Field":"소암로","Position":{"lat":33.24504,"lon":126.56752}}
{"Spot_Name":"우도해운 / 우도 가는 배","Spot_Addr":"제주특별자치도 제주시 우도면 우도해안길 352","Spot_Score":5,"Spot_Views":6502,"Spot_Time":"2022-08-11","Spot_Field":"우도면","Position":{"lat":33.50953,"lon":126.94358}}
{"Spot_Name":"라온승마클럽","Spot_Addr":"제주특별자치도 제주시 한림읍 월림7길 155","Spot_Score":4,"Spot_Views":5610,"Spot_Time":"2022-08-11","Spot_Field":"한림읍","Position":{"lat":33.355453,"lon":126.2419}}
{"Spot_Name":"이니스프리제주하우스","Spot_Addr":"제주특별자치도 서귀포시 안덕면 신화역사로 23","Spot_Score":5,"Spot_Views":21448,"Spot_Time":"2022-08-11","Spot_Field":"안덕면","Position":{"lat":33.3063942,"lon":126.2905203}}
{"Spot_Name":"파파월드","Spot_Addr":"제주특별자치도 제주시 애월읍 평화로 2157","Spot_Score":5,"Spot_Views":10054,"Spot_Time":"2022-08-11","Spot_Field":"애월읍","Position":{"lat":33.4194584,"lon":126.383518}}
{"Spot_Name":"마라도(마라해양도립공원)","Spot_Addr":"제주특별자치도 서귀포시 대정읍 마라로101번길 46","Spot_Score":5,"Spot_Views":59352,"Spot_Time":"2022-08-11","Spot_Field":"대정읍","Position":{"lat":33.11709285,"lon":126.2674732}}
{"Spot_Name":"퍼시픽 리솜 요트투어 샹그릴라","Spot_Addr":"제주특별자치도 서귀포시 중문관광로 154-17","Spot_Score":4,"Spot_Views":25014,"Spot_Time":"2022-08-11","Spot_Field":"중문관광로","Position":{"lat":33.2439248,"lon":126.4163378}}
{"Spot_Name":"빈네오름","Spot_Addr":"제주특별자치도 제주시 애월읍 봉성리","Spot_Score":0,"Spot_Views":1028,"Spot_Time":"2022-08-11","Spot_Field":"애월읍","Position":{"lat":33.3508,"lon":126.39407}}
{"Spot_Name":"제주힐링명상센터","Spot_Addr":"제주특별자치도 제주시 애월읍 어음13길 196","Spot_Score":0,"Spot_Views":9841,"Spot_Time":"2022-08-11","Spot_Field":"애월읍","Position":{"lat":33.3954954,"lon":126.3611333}}
{"Spot_Name":"렛츠런팜제주","Spot_Addr":"제주특별자치도 제주시 조천읍 남조로 1660","Spot_Score":5,"Spot_Views":33487,"Spot_Time":"2022-08-11","Spot_Field":"조천읍","Position":{"lat":33.41699,"lon":126.681465}}
{"Spot_Name":"삼바 두 브라질","Spot_Score":0,"Spot_Views":1288,"Spot_Time":"2022-08-11","Position":{"lat":33.243904,"lon":126.42062}}
{"Spot_Name":"제주랜드ATV","Spot_Addr":"제주특별자치도 서귀포시 표선면 번영로 2561","Spot_Score":5,"Spot_Views":11533,"Spot_Time":"2022-08-11","Spot_Field":"표선면","Position":{"lat":33.405084,"lon":126.780344}}
{"Spot_Name":"아날로그감귤밭","Spot_Addr":"제주특별자치도 제주시 해안마을8길 46","Spot_Score":4,"Spot_Views":38788,"Spot_Time":"2022-08-11","Spot_Field":"해안마을8길","Position":{"lat":33.45559,"lon":126.451096}}
{"Spot_Name":"산굼부리","Spot_Addr":"제주특별자치도 제주시 조천읍 비자림로 768","Spot_Score":5,"Spot_Views":108472,"Spot_Time":"2022-08-11","Spot_Field":"조천읍","Position":{"lat":33.4316207,"lon":126.6900058}}
{"Spot_Name":"용머리해안","Spot_Addr":"제주특별자치도 서귀포시 안덕면 사계리","Spot_Score":5,"Spot_Views":97286,"Spot_Time":"2022-08-11","Spot_Field":"안덕면","Position":{"lat":33.2334272,"lon":126.313741}}
{"Spot_Name":"제주김녕미로공원","Spot_Addr":"제주특별자치도 제주시 구좌읍 만장굴길 122","Spot_Score":5,"Spot_Views":65910,"Spot_Time":"2022-08-11","Spot_Field":"구좌읍","Position":{"lat":33.53653,"lon":126.77213}}
{"Spot_Name":"걸시오름","Spot_Addr":"제주특별자치도 제주시 연동 산 150","Spot_Score":0,"Spot_Views":1192,"Spot_Time":"2022-08-11","Spot_Field":"연동","Position":{"lat":33.41133,"lon":126.505455}}
{"Spot_Name":"사계해변","Spot_Addr":"제주특별자치도 서귀포시 안덕면 사계리","Spot_Score":5,"Spot_Views":18855,"Spot_Time":"2022-08-11","Spot_Field":"안덕면","Position":{"lat":33.23128864,"lon":126.3106857}}
{"Spot_Name":"세계조가비박물관","Spot_Addr":"제주특별자치도 서귀포시 태평로 284","Spot_Score":4,"Spot_Views":8838,"Spot_Time":"2022-08-11","Spot_Field":"태평로","Position":{"lat":33.2475156,"lon":126.55173}}
{"Spot_Name":"올레캠프 본점 알파캠프","Spot_Addr":"제주특별자치도 서귀포시 성산읍 고성오조로 106","Spot_Score":0,"Spot_Views":1654,"Spot_Time":"2022-08-11","Spot_Field":"성산읍","Position":{"lat":33.4445754,"lon":126.9095025}}
{"Spot_Name":"상여오름","Spot_Addr":"제주특별자치도 제주시 연동 산 60-2","Spot_Score":0,"Spot_Views":1765,"Spot_Time":"2022-08-11","Spot_Field":"연동","Position":{"lat":33.465427,"lon":126.49169}}
{"Spot_Name":"평대해변","Spot_Addr":"제주특별자치도 제주시 구좌읍 평대리 1994-20","Spot_Score":0,"Spot_Views":2927,"Spot_Time":"2022-08-11","Spot_Field":"구좌읍","Position":{"lat":33.533226,"lon":126.84065}}
{"Spot_Name":"쇠소깍해변","Spot_Addr":"제주특별자치도 서귀포시 하효동","Spot_Score":4,"Spot_Views":13130,"Spot_Time":"2022-08-11","Spot_Field":"하효동","Position":{"lat":33.25114,"lon":126.62344}}
{"Spot_Name":"한림공원","Spot_Addr":"제주특별자치도 제주시 한림읍 한림로 300","Spot_Score":5,"Spot_Views":81345,"Spot_Time":"2022-08-11","Spot_Field":"한림읍","Position":{"lat":33.3879944,"lon":126.2397837}}
{"Spot_Name":"스프링데일CC","Spot_Addr":"제주특별자치도 서귀포시 남원읍 서성로 459번지","Spot_Score":0,"Spot_Views":3704,"Spot_Time":"2022-08-11","Spot_Field":"남원읍","Position":{"lat":33.32895,"lon":126.64069}}
{"Spot_Name":"신비의도로","Spot_Addr":"제주특별자치도 제주시 1100로 2894-63","Spot_Score":5,"Spot_Views":27070,"Spot_Time":"2022-08-11","Spot_Field":"1100로","Position":{"lat":33.451225,"lon":126.487305}}
{"Spot_Name":"제주올레 4코스","Spot_Addr":"제주특별자치도 서귀포시 남원읍 태흥리 200-2","Spot_Score":5,"Spot_Views":6995,"Spot_Time":"2022-08-11","Spot_Field":"남원읍","Position":{"lat":33.299873,"lon":126.75359}}
{"Spot_Name":"우도박물관","Spot_Addr":"제주특별자치도 제주시 우도면 우도로 163","Spot_Score":3,"Spot_Views":6327,"Spot_Time":"2022-08-11","Spot_Field":"우도면","Position":{"lat":33.507805,"lon":126.9532}}
{"Spot_Name":"노을승마장","Spot_Addr":"제주특별자치도 제주시 우도면 우도해안길 406-1","Spot_Score":5,"Spot_Views":5702,"Spot_Time":"2022-08-11","Spot_Field":"우도면","Position":{"lat":33.51140616,"lon":126.9438329}}
{"Spot_Name":"토산봉(망오름)","Spot_Addr":"제주특별자치도 서귀포시 표선면 토산리 산 13","Spot_Score":0,"Spot_Views":2030,"Spot_Time":"2022-08-11","Spot_Field":"표선면","Position":{"lat":33.322395,"lon":126.77359}}
{"Spot_Name":"수목원테마파크","Spot_Addr":"제주특별자치도 제주시 은수길 69 (연동)","Spot_Score":4,"Spot_Views":33227,"Spot_Time":"2022-08-11","Spot_Field":"은수길","Position":{"lat":33.47053,"lon":126.48797}}
{"Spot_Name":"바람모루","Spot_Addr":"제주특별자치도 서귀포시 서호동","Spot_Score":5,"Spot_Views":2195,"Spot_Time":"2022-08-11","Spot_Field":"서호동","Position":{"lat":33.252605,"lon":126.51699}}
{"Spot_Name":"서귀포해안","Spot_Addr":"제주특별자치도 서귀포시 서호동","Spot_Score":5,"Spot_Views":4540,"Spot_Time":"2022-08-11","Spot_Field":"서호동","Position":{"lat":33.23262985,"lon":126.4982811}}
{"Spot_Name":"설오름(서리오름)","Spot_Addr":"제주특별자치도 서귀포시 신효동","Spot_Score":0,"Spot_Views":1176,"Spot_Time":"2022-08-11","Spot_Field":"신효동","Position":{"lat":33.256275,"lon":126.60493}}
{"Spot_Name":"하도해변","Spot_Addr":"제주특별자치도 제주시 구좌읍 해맞이해안로","Spot_Score":5,"Spot_Views":11435,"Spot_Time":"2022-08-11","Spot_Field":"구좌읍","Position":{"lat":33.5183,"lon":126.9017}}
{"Spot_Name":"성진이오름(개오름)","Spot_Addr":"제주특별자치도 제주시 봉개동 산 78-2","Spot_Score":0,"Spot_Views":1489,"Spot_Time":"2022-08-11","Spot_Field":"봉개동","Position":{"lat":33.420666,"lon":126.611336}}
{"Spot_Name":"섶섬(서귀포해양도립공원)","Spot_Addr":"제주특별자치도 서귀포시 마소물로","Spot_Score":4,"Spot_Views":8284,"Spot_Time":"2022-08-11","Spot_Field":"마소물로","Position":{"lat":33.230137,"lon":126.5992}}
{"Spot_Name":"세계자동차 & 피아노박물관","Spot_Addr":"제주특별자치도 서귀포시 안덕면 중산간서로 1610","Spot_Score":5,"Spot_Views":24253,"Spot_Time":"2022-08-11","Spot_Field":"안덕면","Position":{"lat":33.283195,"lon":126.34977}}
{"Spot_Name":"한라생태숲","Spot_Addr":"제주특별자치도 제주시 516로 2596","Spot_Score":5,"Spot_Views":18219,"Spot_Time":"2022-08-11","Spot_Field":"516로","Position":{"lat":33.430924,"lon":126.595761}}
{"Spot_Name":"휴애리 자연생활공원","Spot_Addr":"제주특별자치도 서귀포시 남원읍 신례동로 256 (신례리, 휴애리)","Spot_Score":5,"Spot_Views":66590,"Spot_Time":"2022-08-11","Spot_Field":"남원읍","Position":{"lat":33.30854,"lon":126.63448}}
{"Spot_Name":"더데오름(가가악)","Spot_Addr":"제주특별자치도 서귀포시 상예동 4489-1 일대","Spot_Score":0,"Spot_Views":1296,"Spot_Time":"2022-08-11","Spot_Field":"상예동","Position":{"lat":33.277172,"lon":126.37349}}
{"Spot_Name":"대정해변(하모해변)","Spot_Addr":"제주특별자치도 서귀포시 대정읍 하모리","Spot_Score":5,"Spot_Views":6557,"Spot_Time":"2022-08-11","Spot_Field":"대정읍","Position":{"lat":33.226463,"lon":126.25283}}
{"Spot_Name":"돔베낭골","Spot_Addr":"제주특별자치도 서귀포시 호근동","Spot_Score":5,"Spot_Views":5023,"Spot_Time":"2022-08-11","Spot_Field":"호근동","Position":{"lat":33.238617,"lon":126.53255}}
{"Spot_Name":"톨칸이","Spot_Addr":"제주특별자치도 제주시 우도면 연평리 1732-1","Spot_Score":5,"Spot_Views":4446,"Spot_Time":"2022-08-11","Spot_Field":"우도면","Position":{"lat":33.492393,"lon":126.9579}}
{"Spot_Name":"제주절물자연휴양림","Spot_Addr":"제주특별자치도 제주시 명림로 584","Spot_Score":5,"Spot_Views":78843,"Spot_Time":"2022-08-11","Spot_Field":"명림로","Position":{"lat":33.439373,"lon":126.62845}}
